address,bathrooms,country,detailedType,distance,district,exterior,externalReference,floor,has360,has3DTour,hasLift,hasPlan,hasVideo,latitude,longitude,municipality,neighborhood,newDevelopment,numPhotos,operation,parkingIncludedInprice,parkingSpace,price,priceByArea,propertyCode,propertyType,province,rooms,showAddress,size,status,suggestedTexts,thumbnail,url
Río Duero,3,es,"{'typology': 'chalet', 'subTypology': 'independantHouse'}",1177,,False,3248-13675,,False,False,,True,True,40.1157,-3.25203,Villarejo de Salvanés,,False,41,sale,True,True,240000.0,857.0,81744501,chalet,Madrid,4,False,280.0,good,"{'subtitle': 'Villarejo de Salvanés', 'title': 'Casa independiente en Río Duero'}",https://img3.idealista.com/blur/WEB_LISTING/0/id.pro.es.image.master/89/60/cd/600783077.jpg,https://www.idealista.com/inmueble/81744501/
Calle Rio Genil,1,es,"{'typology': 'chalet', 'subTypology': 'independantHouse'}",952,,False,M_V_Salvanés,,False,False,,False,False,40.1154961,-3.2473997,Villarejo de Salvanés,,False,45,sale,True,True,155000.0,615.0,84539097,chalet,Madrid,3,False,252.0,good,"{'subtitle': 'Villarejo de Salvanés', 'title': 'Casa independiente en Calle Rio Genil'}",https://img3.idealista.com/blur/WEB_LISTING/0/id.pro.es.image.master/4b/e4/d7/641365838.jpg,https://www.idealista.com/inmueble/84539097/
"Calle Rio Duero, 16",2,es,"{'typology': 'chalet', 'subTypology': 'independantHouse'}",1466,,False,,,False,False,,False,False,40.11253,-3.25248,Villarejo de Salvanés,,False,11,sale,True,True,185000.0,787.0,82986690,chalet,Madrid,4,True,235.0,good,"{'subtitle': 'Villarejo de Salvanés', 'title': 'Casa independiente en Calle Rio Duero, 16'}",https://img3.idealista.com/blur/WEB_LISTING/0/id.pro.es.image.master/d0/76/f4/609243765.jpg,https://www.idealista.com/inmueble/82986690/
"Calle Rio Miño, 7",1,es,"{'typology': 'chalet', 'subTypology': 'independantHouse'}",1462,,False,,,False,False,,False,False,40.11347,-3.25386,Villarejo de Salvanés,,False,0,sale,,,40000.0,667.0,84042841,chalet,Madrid,1,True,60.0,renew,"{'subtitle': 'Villarejo de Salvanés', 'title': 'Casa independiente en Calle Rio Miño, 7'}",,https://www.idealista.com/inmueble/84042841/
Calle de Guzmán el Bueno,3,es,{'typology': 'flat'},1278,Chamberí,True,BFBM-V161,3,False,True,True,True,True,40.4390294,-3.7140076,Madrid,Gaztambide,False,30,sale,True,True,1320000.0,4444.0,83547069,flat,Madrid,4,False,297.0,good,"{'subtitle': 'Gaztambide, Madrid', 'title': 'Piso en Calle de Guzmán el Bueno'}",https://img3.idealista.com/blur/WEB_LISTING/0/id.pro.es.image.master/f4/d5/7a/620115838.jpg,https://www.idealista.com/inmueble/83547069/
barrio Ciudad Universitaria,3,es,{'typology': 'flat'},468,Moncloa,True,AJ122490,1,False,True,True,True,True,40.4469019,-3.7157298,Madrid,Ciudad Universitaria,False,41,sale,True,True,1200000.0,5854.0,40036848,flat,Madrid,4,False,205.0,renew,"{'subtitle': 'Ciudad Universitaria, Madrid', 'title': 'Piso'}",https://img3.idealista.com/blur/WEB_LISTING/0/id.pro.es.image.master/94/23/f8/272274542.jpg,https://www.idealista.com/inmueble/40036848/
Calle de Cristóbal Bordiú,2,es,{'typology': 'flat'},1013,Chamberí,True,22943,2,True,False,True,True,True,40.4440448,-3.704364,Madrid,Nuevos Ministerios-Ríos Rosas,False,33,sale,,,495000.0,5380.0,81435812,flat,Madrid,3,False,92.0,good,"{'subtitle': 'Nuevos Ministerios-Ríos Rosas, Madrid', 'title': 'Piso en Calle de Cristóbal Bordiú'}",https://img3.idealista.com/blur/WEB_LISTING/0/id.pro.es.image.master/26/1e/4a/642494966.jpg,https://www.idealista.com/inmueble/81435812/
barrio Gaztambide,3,es,{'typology': 'flat'},1165,Chamberí,True,VM1812014,2,True,False,True,True,True,40.4400245,-3.7135146,Madrid,Gaztambide,False,17,sale,,,990000.0,3194.0,83557263,flat,Madrid,4,False,310.0,renew,"{'subtitle': 'Gaztambide, Madrid', 'title': 'Piso'}",https://img3.idealista.com/blur/WEB_LISTING/0/id.pro.es.image.master/5f/ed/be/620335016.jpg,https://www.idealista.com/inmueble/83557263/
Santa Engracia,2,es,{'typology': 'flat'},1297,Chamberí,True,SEngracia,5,False,False,True,True,True,40.4410889,-3.7037584,Madrid,Nuevos Ministerios-Ríos Rosas,False,21,sale,,,660000.0,5038.0,84463649,flat,Madrid,5,False,131.0,good,"{'subtitle': 'Nuevos Ministerios-Ríos Rosas, Madrid', 'title': 'Piso en Santa Engracia'}",https://img3.idealista.com/blur/WEB_LISTING/0/id.pro.es.image.master/5a/84/17/639899941.jpg,https://www.idealista.com/inmueble/84463649/
barrio Arapiles,2,es,{'typology': 'flat'},1233,Chamberí,True,W-02DPS8,1,False,False,True,True,True,40.4395552,-3.7104079,Madrid,Arapiles,False,29,sale,,,750000.0,6818.0,84529860,flat,Madrid,2,False,110.0,good,"{'subtitle': 'Arapiles, Madrid', 'title': 'Piso'}",https://img3.idealista.com/blur/WEB_LISTING/0/id.pro.es.image.master/82/19/e3/641154353.jpg,https://www.idealista.com/inmueble/84529860/
Calle de Bravo Murillo,1,es,{'typology': 'flat'},1273,Tetuán,True,BFBM-V204,1,True,False,True,False,False,40.4586278,-3.7022244,Madrid,Berruguete,False,25,sale,True,True,239990.0,4615.0,84376563,flat,Madrid,1,False,52.0,good,"{'subtitle': 'Berruguete, Madrid', 'title': 'Piso en Calle de Bravo Murillo'}",https://img3.idealista.com/blur/WEB_LISTING/0/id.pro.es.image.master/78/a4/c7/637728257.jpg,https://www.idealista.com/inmueble/84376563/
barrio Gaztambide,3,es,{'typology': 'flat'},1145,Chamberí,True,cm-423148,2,False,False,True,True,True,40.4402827,-3.7110576,Madrid,Gaztambide,False,41,sale,True,True,1150000.0,4228.0,84232398,flat,Madrid,4,False,272.0,good,"{'subtitle': 'Gaztambide, Madrid', 'title': 'Piso'}",https://img3.idealista.com/blur/WEB_LISTING/0/id.pro.es.image.master/2b/d2/5c/634640959.jpg,https://www.idealista.com/inmueble/84232398/
barrio Cuatro Caminos,2,es,{'typology': 'flat'},1195,Tetuán,True,ch-423180,5,False,False,True,True,True,40.4527807,-3.6990213,Madrid,Cuatro Caminos,False,41,sale,,,850000.0,3953.0,84120886,flat,Madrid,5,False,215.0,renew,"{'subtitle': 'Cuatro Caminos, Madrid', 'title': 'Piso'}",https://img3.idealista.com/blur/WEB_LISTING/0/id.pro.es.image.master/7a/15/41/633598049.jpg,https://www.idealista.com/inmueble/84120886/
barrio Vallehermoso,5,es,{'typology': 'flat'},1043,Chamberí,True,EOR24139,5,False,False,True,True,True,40.44136,-3.71568,Madrid,Vallehermoso,False,44,sale,True,True,1650000.0,4484.0,83898015,flat,Madrid,5,False,368.0,renew,"{'subtitle': 'Vallehermoso, Madrid', 'title': 'Piso'}",https://img3.idealista.com/blur/WEB_LISTING/0/id.pro.es.image.master/e3/a0/7b/630263298.jpg,https://www.idealista.com/inmueble/83898015/
Calle Guzmán el Bueno,3,es,{'typology': 'flat'},1161,Chamberí,True,MD5D1V31,6,True,False,True,True,True,40.4401103,-3.7112918,Madrid,Vallehermoso,False,40,sale,,,1070000.0,4458.0,83258154,flat,Madrid,4,False,240.0,good,"{'subtitle': 'Vallehermoso, Madrid', 'title': 'Piso en Calle Guzmán el Bueno'}",https://img3.idealista.com/blur/WEB_LISTING/0/id.pro.es.image.master/bb/51/04/614553799.jpg,https://www.idealista.com/inmueble/83258154/
barrio Nuevos Ministerios-Ríos Rosas,2,es,"{'typology': 'flat', 'subTypology': 'duplex'}",1198,Chamberí,True,W-02DTUO,5,False,False,True,True,True,40.4466627,-3.6995861,Madrid,Nuevos Ministerios-Ríos Rosas,False,33,sale,False,True,960000.0,4683.0,83214456,duplex,Madrid,4,False,205.0,good,"{'subtitle': 'Nuevos Ministerios-Ríos Rosas, Madrid', 'title': 'Dúplex'}",https://img3.idealista.com/blur/WEB_LISTING/0/id.pro.es.image.master/2d/57/02/631425153.jpg,https://www.idealista.com/inmueble/83214456/
Calle Serrallo,1,es,{'typology': 'flat'},1478,Tetuán,True,MD3A10V01,4,True,False,True,True,True,40.4618319,-3.7036912,Madrid,Berruguete,False,41,sale,,,250000.0,3731.0,84251134,flat,Madrid,3,False,67.0,good,"{'subtitle': 'Berruguete, Madrid', 'title': 'Piso en Calle Serrallo'}",https://img3.idealista.com/blur/WEB_LISTING/0/id.pro.es.image.master/9f/f1/ff/635015424.jpg,https://www.idealista.com/inmueble/84251134/
barrio Nuevos Ministerios-Ríos Rosas,2,es,{'typology': 'flat'},1097,Chamberí,True,W-02EP2B,4,True,False,True,True,True,40.4432889,-3.7039584,Madrid,Nuevos Ministerios-Ríos Rosas,False,45,sale,,,495000.0,4420.0,83957889,flat,Madrid,4,False,112.0,renew,"{'subtitle': 'Nuevos Ministerios-Ríos Rosas, Madrid', 'title': 'Piso'}",https://img3.idealista.com/blur/WEB_LISTING/0/id.pro.es.image.master/64/1a/24/629595921.jpg,https://www.idealista.com/inmueble/83957889/
barrio Vallehermoso,3,es,{'typology': 'flat'},1100,Chamberí,True,cm-423149,2,True,False,True,True,False,40.4406376,-3.711699,Madrid,Vallehermoso,False,40,sale,,,750000.0,4167.0,83856505,flat,Madrid,5,False,180.0,renew,"{'subtitle': 'Vallehermoso, Madrid', 'title': 'Piso'}",https://img3.idealista.com/blur/WEB_LISTING/0/id.pro.es.image.master/8d/f4/05/627182016.jpg,https://www.idealista.com/inmueble/83856505/
barrio Nuevos Ministerios-Ríos Rosas,3,es,{'typology': 'flat'},1116,Chamberí,True,cm-423098,4,True,False,True,True,False,40.4435012,-3.7033497,Madrid,Nuevos Ministerios-Ríos Rosas,False,40,sale,True,True,875000.0,4630.0,83564774,flat,Madrid,4,False,189.0,renew,"{'subtitle': 'Nuevos Ministerios-Ríos Rosas, Madrid', 'title': 'Piso'}",https://img3.idealista.com/blur/WEB_LISTING/0/id.pro.es.image.master/8d/ef/ae/621459414.jpg,https://www.idealista.com/inmueble/83564774/
barrio Gaztambide,4,es,{'typology': 'flat'},1488,Chamberí,True,cm-422968,5,True,False,True,True,False,40.4371245,-3.7138146,Madrid,Gaztambide,False,47,sale,True,True,1140000.0,3654.0,83093404,flat,Madrid,5,False,312.0,renew,"{'subtitle': 'Gaztambide, Madrid', 'title': 'Piso'}",https://img3.idealista.com/blur/WEB_LISTING/0/id.pro.es.image.master/75/ac/d0/611435769.jpg,https://www.idealista.com/inmueble/83093404/
barrio Cuatro Caminos,3,es,{'typology': 'flat'},1347,Tetuán,True,ch-422694,1,True,False,True,True,False,40.4533479,-3.6973542,Madrid,Cuatro Caminos,False,41,sale,,,750000.0,3659.0,81380081,flat,Madrid,5,False,205.0,renew,"{'subtitle': 'Cuatro Caminos, Madrid', 'title': 'Piso'}",https://img3.idealista.com/blur/WEB_LISTING/0/id.pro.es.image.master/0b/6f/ed/575856819.jpg,https://www.idealista.com/inmueble/81380081/
barrio Cuatro Caminos,1,es,"{'typology': 'flat', 'subTypology': 'penthouse'}",1477,Tetuán,True,VM1807024,7,True,False,True,True,True,40.4460189,-3.6963879,Madrid,Cuatro Caminos,False,25,sale,True,True,420000.0,6000.0,81761363,penthouse,Madrid,1,False,70.0,good,"{'subtitle': 'Cuatro Caminos, Madrid', 'title': 'Ático'}",https://img3.idealista.com/blur/WEB_LISTING/0/id.pro.es.image.master/56/c4/79/583897913.jpg,https://www.idealista.com/inmueble/81761363/
Calle de Bravo Murillo,1,es,{'typology': 'flat'},1119,Chamberí,False,20002863,4,True,False,True,False,False,40.4431271,-3.7038087,Madrid,Nuevos Ministerios-Ríos Rosas,False,21,sale,,,267000.0,7417.0,83638743,flat,Madrid,2,False,36.0,good,"{'subtitle': 'Nuevos Ministerios-Ríos Rosas, Madrid', 'title': 'Piso en Calle de Bravo Murillo'}",https://img3.idealista.com/blur/WEB_LISTING/0/id.pro.es.image.master/fc/65/92/622137981.jpg,https://www.idealista.com/inmueble/83638743/
"Calle de Luis Martinez Feduchi, 134",3,es,{'typology': 'flat'},7973,Encinar de los Reyes,True,V6016I,3,False,True,True,True,True,40.5006683,-3.6454795,La Moraleja,,False,41,sale,True,True,795000.0,4297.0,39350830,flat,Madrid,4,True,185.0,good,"{'subtitle': 'Encinar de los Reyes, La Moraleja', 'title': 'Piso en Calle de Luis Martinez Feduchi, 134'}",https://img3.idealista.com/blur/WEB_LISTING/0/id.pro.es.image.master/e4/a2/4f/643411029.jpg,https://www.idealista.com/inmueble/39350830/
"Calle del camino de hoyarrasa, 197",5,es,"{'typology': 'chalet', 'subTypology': 'independantHouse'}",12304,La Moraleja,False,V1381I,,True,True,,True,True,40.5255952,-3.605967,La Moraleja,,False,31,sale,True,True,1795000.0,2992.0,38940033,chalet,Madrid,5,True,600.0,,"{'subtitle': 'La Moraleja, La Moraleja', 'title': 'Casa independiente en Calle del camino de hoyarrasa, 197'}",https://img3.idealista.com/blur/WEB_LISTING/0/id.pro.es.image.master/61/6f/c7/643900675.jpg,https://www.idealista.com/inmueble/38940033/
barrio Valdemarín,4,es,{'typology': 'flat'},6829,Moncloa,True,PV7264I,bj,False,True,True,True,True,40.4660007,-3.7909409,Madrid,Valdemarín,False,41,sale,True,True,890000.0,5933.0,84363279,flat,Madrid,4,False,150.0,good,"{'subtitle': 'Valdemarín, Madrid', 'title': 'Piso'}",https://img3.idealista.com/blur/WEB_LISTING/0/id.pro.es.image.master/c2/57/0c/645382177.jpg,https://www.idealista.com/inmueble/84363279/
barrio La Finca,5,es,"{'typology': 'chalet', 'subTypology': 'semidetachedHouse'}",8441,Zona Prado de Somosaguas - La Finca,False,PV5857I,,False,True,,True,True,40.4162594,-3.8018479,Pozuelo de Alarcón,La Finca,False,40,sale,True,True,2250000.0,3968.0,82838939,chalet,Madrid,4,False,567.0,good,"{'subtitle': 'La Finca, Pozuelo de Alarcón', 'title': 'Chalet pareado'}",https://img3.idealista.com/blur/WEB_LISTING/0/id.pro.es.image.master/f2/50/57/646453238.jpg,https://www.idealista.com/inmueble/82838939/
"Avenida de la Vega, Alcobendas",1,es,{'typology': 'flat'},11957,Arroyo de la Vega,True,AP128177,3,True,True,True,True,True,40.5353772,-3.6259914,La Moraleja,,False,20,sale,True,True,378000.0,5400.0,82498724,flat,Madrid,2,False,70.0,good,"{'subtitle': 'Arroyo de la Vega, La Moraleja', 'title': 'Piso en Avenida de la Vega, Alcobendas'}",https://img3.idealista.com/blur/WEB_LISTING/0/id.pro.es.image.master/95/52/dd/599008541.jpg,https://www.idealista.com/inmueble/82498724/
Calle Dodge,2,es,{'typology': 'flat'},9388,Usera,True,BFU-V742,5,False,True,True,True,True,40.3660608,-3.711397,Madrid,Orcasitas,False,42,sale,True,True,217000.0,1764.0,84034109,flat,Madrid,2,False,123.0,good,"{'subtitle': 'Orcasitas, Madrid', 'title': 'Piso en Calle Dodge'}",https://img3.idealista.com/blur/WEB_LISTING/0/id.pro.es.image.master/60/61/3f/630411158.jpg,https://www.idealista.com/inmueble/84034109/
barrio Chueca-Justicia,1,es,{'typology': 'flat'},3301,Centro,True,VP-0872,2,False,True,False,True,True,40.4235319,-3.696493,Madrid,Chueca-Justicia,False,39,sale,,,490000.0,7424.0,83587722,flat,Madrid,1,False,66.0,good,"{'subtitle': 'Chueca-Justicia, Madrid', 'title': 'Piso'}",https://img3.idealista.com/blur/WEB_LISTING/0/id.pro.es.image.master/20/d0/7f/621031540.jpg,https://www.idealista.com/inmueble/83587722/
Calle de Diego de León,4,es,"{'typology': 'flat', 'subTypology': 'penthouse'}",3001,Salamanca,True,DS-P22120,8,True,True,True,True,True,40.4368776,-3.6822011,Madrid,Castellana,False,57,sale,,,1650000.0,7021.0,83637945,penthouse,Madrid,5,False,235.0,renew,"{'subtitle': 'Castellana, Madrid', 'title': 'Ático en Calle de Diego de León'}",https://img3.idealista.com/blur/WEB_LISTING/0/id.pro.es.image.master/1e/37/ea/641418021.jpg,https://www.idealista.com/inmueble/83637945/
Calle del Alto,8,es,"{'typology': 'chalet', 'subTypology': 'independantHouse'}",10355,Encinar de los Reyes,False,VC19942,,True,True,,True,True,40.5089059,-3.6174592,La Moraleja,,False,53,sale,True,True,4100000.0,4858.0,83453714,chalet,Madrid,9,False,844.0,good,"{'subtitle': 'Encinar de los Reyes, La Moraleja', 'title': 'Casa independiente en Calle del Alto'}",https://img3.idealista.com/blur/WEB_LISTING/0/id.pro.es.image.master/4f/51/2f/618308786.jpg,https://www.idealista.com/inmueble/83453714/
Camino MESONCILLOS,4,es,"{'typology': 'chalet', 'subTypology': 'independantHouse'}",11871,La Moraleja,False,VC19406,,False,True,,True,True,40.5221568,-3.6087652,La Moraleja,,False,58,sale,True,True,4200000.0,4217.0,38391652,chalet,Madrid,5,False,996.0,good,"{'subtitle': 'La Moraleja, La Moraleja', 'title': 'Casa independiente en Camino MESONCILLOS'}",https://img3.idealista.com/blur/WEB_LISTING/0/id.pro.es.image.master/b1/4e/64/235832035.jpg,https://www.idealista.com/inmueble/38391652/
Encinar de los Reyes,4,es,"{'typology': 'chalet', 'subTypology': 'semidetachedHouse'}",8676,Encinar de los Reyes,False,V6172I,,False,True,,True,True,40.504718,-3.6390609,La Moraleja,,False,41,sale,True,True,1150000.0,4792.0,83879740,chalet,Madrid,4,False,240.0,good,"{'subtitle': 'Encinar de los Reyes, La Moraleja', 'title': 'Chalet pareado'}",https://img3.idealista.com/blur/WEB_LISTING/0/id.pro.es.image.master/6c/c1/13/640033529.jpg,https://www.idealista.com/inmueble/83879740/
Encinar de los Reyes,5,es,"{'typology': 'chalet', 'subTypology': 'semidetachedHouse'}",8548,Encinar de los Reyes,False,V6115I,,False,True,,True,True,40.5058646,-3.6427008,La Moraleja,,False,41,sale,True,True,1385000.0,4328.0,83260835,chalet,Madrid,4,False,320.0,good,"{'subtitle': 'Encinar de los Reyes, La Moraleja', 'title': 'Chalet pareado'}",https://img3.idealista.com/blur/WEB_LISTING/0/id.pro.es.image.master/2d/d7/ca/642162158.jpg,https://www.idealista.com/inmueble/83260835/
barrio Aravaca,4,es,"{'typology': 'chalet', 'subTypology': 'semidetachedHouse'}",6648,Moncloa,False,PV7174I,,False,True,,True,True,40.4572032,-3.7909058,Madrid,Aravaca,False,41,sale,True,True,920000.0,2244.0,82878698,chalet,Madrid,6,False,410.0,good,"{'subtitle': 'Aravaca, Madrid', 'title': 'Chalet pareado'}",https://img3.idealista.com/blur/WEB_LISTING/0/id.pro.es.image.master/b2/f5/6e/643539853.jpg,https://www.idealista.com/inmueble/82878698/
Camino del Golf,7,es,"{'typology': 'chalet', 'subTypology': 'independantHouse'}",10886,La Moraleja,False,VC10646,,False,True,,True,True,40.5179226,-3.6194974,La Moraleja,,False,58,sale,True,True,3200000.0,4000.0,84592615,chalet,Madrid,7,False,800.0,good,"{'subtitle': 'La Moraleja, La Moraleja', 'title': 'Casa independiente en Camino del Golf'}",https://img3.idealista.com/blur/WEB_LISTING/0/id.pro.es.image.master/5b/5a/4f/642993419.jpg,https://www.idealista.com/inmueble/84592615/
"Calle de Juan Bravo, Madrid",4,es,{'typology': 'flat'},3349,Salamanca,True,es135054,6,True,True,True,True,True,40.4338488,-3.6798429,Madrid,Lista,False,30,sale,True,True,1540000.0,6471.0,84553321,flat,Madrid,5,False,238.0,renew,"{'subtitle': 'Lista, Madrid', 'title': 'Piso en Calle de Juan Bravo, Madrid'}",https://img3.idealista.com/blur/WEB_LISTING/0/id.pro.es.image.master/01/05/c4/641685959.jpg,https://www.idealista.com/inmueble/84553321/
Encinar de los Reyes,5,es,"{'typology': 'chalet', 'subTypology': 'semidetachedHouse'}",8790,Encinar de los Reyes,False,QT135028,,True,True,,True,True,40.505288,-3.6378986,La Moraleja,,False,68,sale,True,True,1785000.0,4103.0,84563513,chalet,Madrid,5,False,435.0,good,"{'subtitle': 'Encinar de los Reyes, La Moraleja', 'title': 'Chalet pareado'}",https://img3.idealista.com/blur/WEB_LISTING/0/id.pro.es.image.master/43/8c/46/642208538.jpg,https://www.idealista.com/inmueble/84563513/
Encinar de los Reyes,5,es,"{'typology': 'chalet', 'subTypology': 'semidetachedHouse'}",8997,Encinar de los Reyes,False,TZ134487,,False,True,,True,True,40.5088323,-3.6390983,La Moraleja,,False,64,sale,True,True,1690000.0,3558.0,84393668,chalet,Madrid,5,False,475.0,good,"{'subtitle': 'Encinar de los Reyes, La Moraleja', 'title': 'Chalet pareado'}",https://img3.idealista.com/blur/WEB_LISTING/0/id.pro.es.image.master/26/28/19/638089434.jpg,https://www.idealista.com/inmueble/84393668/
"Calle López de Hoyos, 138",1,es,{'typology': 'flat'},3461,Chamartín,False,dg133294,2,False,True,True,True,True,40.4448963,-3.6725838,Madrid,Prosperidad,False,43,sale,,,349000.0,4653.0,84368226,flat,Madrid,2,True,75.0,good,"{'subtitle': 'Prosperidad, Madrid', 'title': 'Piso en Calle López de Hoyos, 138'}",https://img3.idealista.com/blur/WEB_LISTING/0/id.pro.es.image.master/34/75/14/638323440.jpg,https://www.idealista.com/inmueble/84368226/
"prado del rey, 4",6,es,"{'typology': 'chalet', 'subTypology': 'independantHouse'}",8288,Zona Prado de Somosaguas - La Finca,False,0678,,True,True,,True,True,40.414607,-3.7986611,Pozuelo de Alarcón,La Finca,False,48,sale,True,True,2900000.0,3625.0,81401246,chalet,Madrid,5,True,800.0,good,"{'subtitle': 'La Finca, Pozuelo de Alarcón', 'title': 'Casa independiente en prado del rey, 4'}",https://img3.idealista.com/blur/WEB_LISTING/0/id.pro.es.image.master/ec/11/77/576681493.jpg,https://www.idealista.com/inmueble/81401246/
"Calle Núñez de Balboa, 11",2,es,{'typology': 'flat'},3986,Salamanca,True,422437,6,False,True,True,True,True,40.4227044,-3.6830602,Madrid,Recoletos,False,69,sale,,,925000.0,9343.0,40147837,flat,Madrid,2,True,99.0,good,"{'subtitle': 'Recoletos, Madrid', 'title': 'Piso en Calle Núñez de Balboa, 11'}",https://img3.idealista.com/blur/WEB_LISTING/0/id.pro.es.image.master/c3/e4/52/586671522.jpg,https://www.idealista.com/inmueble/40147837/
"Calle de Luis Martinez Feduchi, 134",3,es,{'typology': 'flat'},7973,Encinar de los Reyes,True,V6016I,3,False,True,True,True,True,40.5006683,-3.6454795,La Moraleja,,False,41,sale,True,True,795000.0,4297.0,39350830,flat,Madrid,4,True,185.0,good,"{'subtitle': 'Encinar de los Reyes, La Moraleja', 'title': 'Piso en Calle de Luis Martinez Feduchi, 134'}",https://img3.idealista.com/blur/WEB_LISTING/0/id.pro.es.image.master/e4/a2/4f/643411029.jpg,https://www.idealista.com/inmueble/39350830/
"Calle del camino de hoyarrasa, 197",5,es,"{'typology': 'chalet', 'subTypology': 'independantHouse'}",12304,La Moraleja,False,V1381I,,True,True,,True,True,40.5255952,-3.605967,La Moraleja,,False,31,sale,True,True,1795000.0,2992.0,38940033,chalet,Madrid,5,True,600.0,,"{'subtitle': 'La Moraleja, La Moraleja', 'title': 'Casa independiente en Calle del camino de hoyarrasa, 197'}",https://img3.idealista.com/blur/WEB_LISTING/0/id.pro.es.image.master/61/6f/c7/643900675.jpg,https://www.idealista.com/inmueble/38940033/
barrio Valdemarín,4,es,{'typology': 'flat'},6829,Moncloa,True,PV7264I,bj,False,True,True,True,True,40.4660007,-3.7909409,Madrid,Valdemarín,False,41,sale,True,True,890000.0,5933.0,84363279,flat,Madrid,4,False,150.0,good,"{'subtitle': 'Valdemarín, Madrid', 'title': 'Piso'}",https://img3.idealista.com/blur/WEB_LISTING/0/id.pro.es.image.master/c2/57/0c/645382177.jpg,https://www.idealista.com/inmueble/84363279/
barrio La Finca,5,es,"{'typology': 'chalet', 'subTypology': 'semidetachedHouse'}",8441,Zona Prado de Somosaguas - La Finca,False,PV5857I,,False,True,,True,True,40.4162594,-3.8018479,Pozuelo de Alarcón,La Finca,False,40,sale,True,True,2250000.0,3968.0,82838939,chalet,Madrid,4,False,567.0,good,"{'subtitle': 'La Finca, Pozuelo de Alarcón', 'title': 'Chalet pareado'}",https://img3.idealista.com/blur/WEB_LISTING/0/id.pro.es.image.master/f2/50/57/646453238.jpg,https://www.idealista.com/inmueble/82838939/
"Avenida de la Vega, Alcobendas",1,es,{'typology': 'flat'},11957,Arroyo de la Vega,True,AP128177,3,True,True,True,True,True,40.5353772,-3.6259914,La Moraleja,,False,20,sale,True,True,378000.0,5400.0,82498724,flat,Madrid,2,False,70.0,good,"{'subtitle': 'Arroyo de la Vega, La Moraleja', 'title': 'Piso en Avenida de la Vega, Alcobendas'}",https://img3.idealista.com/blur/WEB_LISTING/0/id.pro.es.image.master/95/52/dd/599008541.jpg,https://www.idealista.com/inmueble/82498724/
Calle Dodge,2,es,{'typology': 'flat'},9388,Usera,True,BFU-V742,5,False,True,True,True,True,40.3660608,-3.711397,Madrid,Orcasitas,False,42,sale,True,True,217000.0,1764.0,84034109,flat,Madrid,2,False,123.0,good,"{'subtitle': 'Orcasitas, Madrid', 'title': 'Piso en Calle Dodge'}",https://img3.idealista.com/blur/WEB_LISTING/0/id.pro.es.image.master/60/61/3f/630411158.jpg,https://www.idealista.com/inmueble/84034109/
barrio Chueca-Justicia,1,es,{'typology': 'flat'},3301,Centro,True,VP-0872,2,False,True,False,True,True,40.4235319,-3.696493,Madrid,Chueca-Justicia,False,39,sale,,,490000.0,7424.0,83587722,flat,Madrid,1,False,66.0,good,"{'subtitle': 'Chueca-Justicia, Madrid', 'title': 'Piso'}",https://img3.idealista.com/blur/WEB_LISTING/0/id.pro.es.image.master/20/d0/7f/621031540.jpg,https://www.idealista.com/inmueble/83587722/
Calle de Diego de León,4,es,"{'typology': 'flat', 'subTypology': 'penthouse'}",3001,Salamanca,True,DS-P22120,8,True,True,True,True,True,40.4368776,-3.6822011,Madrid,Castellana,False,57,sale,,,1650000.0,7021.0,83637945,penthouse,Madrid,5,False,235.0,renew,"{'subtitle': 'Castellana, Madrid', 'title': 'Ático en Calle de Diego de León'}",https://img3.idealista.com/blur/WEB_LISTING/0/id.pro.es.image.master/1e/37/ea/641418021.jpg,https://www.idealista.com/inmueble/83637945/
Calle del Alto,8,es,"{'typology': 'chalet', 'subTypology': 'independantHouse'}",10355,Encinar de los Reyes,False,VC19942,,True,True,,True,True,40.5089059,-3.6174592,La Moraleja,,False,53,sale,True,True,4100000.0,4858.0,83453714,chalet,Madrid,9,False,844.0,good,"{'subtitle': 'Encinar de los Reyes, La Moraleja', 'title': 'Casa independiente en Calle del Alto'}",https://img3.idealista.com/blur/WEB_LISTING/0/id.pro.es.image.master/4f/51/2f/618308786.jpg,https://www.idealista.com/inmueble/83453714/
SIERRA DE GREDOS,4,es,"{'typology': 'chalet', 'subTypology': 'independantHouse'}",24934,Villanueva de la Cañada,False,JI130315,,False,True,,True,True,40.4386089,-4.0070849,Villanueva de la Cañada,,False,35,sale,True,True,515000.0,1943.0,82939112,chalet,Madrid,5,False,265.0,good,"{'subtitle': 'Villanueva de la Cañada, Villanueva de la Cañada', 'title': 'Casa independiente en SIERRA DE GREDOS'}",https://img3.idealista.com/blur/WEB_LISTING/0/id.pro.es.image.master/6a/31/79/609598500.jpg,https://www.idealista.com/inmueble/82939112/
Camino MESONCILLOS,4,es,"{'typology': 'chalet', 'subTypology': 'independantHouse'}",11871,La Moraleja,False,VC19406,,False,True,,True,True,40.5221568,-3.6087652,La Moraleja,,False,58,sale,True,True,4200000.0,4217.0,38391652,chalet,Madrid,5,False,996.0,good,"{'subtitle': 'La Moraleja, La Moraleja', 'title': 'Casa independiente en Camino MESONCILLOS'}",https://img3.idealista.com/blur/WEB_LISTING/0/id.pro.es.image.master/b1/4e/64/235832035.jpg,https://www.idealista.com/inmueble/38391652/
Encinar de los Reyes,4,es,"{'typology': 'chalet', 'subTypology': 'semidetachedHouse'}",8676,Encinar de los Reyes,False,V6172I,,False,True,,True,True,40.504718,-3.6390609,La Moraleja,,False,41,sale,True,True,1150000.0,4792.0,83879740,chalet,Madrid,4,False,240.0,good,"{'subtitle': 'Encinar de los Reyes, La Moraleja', 'title': 'Chalet pareado'}",https://img3.idealista.com/blur/WEB_LISTING/0/id.pro.es.image.master/6c/c1/13/640033529.jpg,https://www.idealista.com/inmueble/83879740/
Encinar de los Reyes,5,es,"{'typology': 'chalet', 'subTypology': 'semidetachedHouse'}",8548,Encinar de los Reyes,False,V6115I,,False,True,,True,True,40.5058646,-3.6427008,La Moraleja,,False,41,sale,True,True,1385000.0,4328.0,83260835,chalet,Madrid,4,False,320.0,good,"{'subtitle': 'Encinar de los Reyes, La Moraleja', 'title': 'Chalet pareado'}",https://img3.idealista.com/blur/WEB_LISTING/0/id.pro.es.image.master/2d/d7/ca/642162158.jpg,https://www.idealista.com/inmueble/83260835/
barrio Aravaca,4,es,"{'typology': 'chalet', 'subTypology': 'semidetachedHouse'}",6648,Moncloa,False,PV7174I,,False,True,,True,True,40.4572032,-3.7909058,Madrid,Aravaca,False,41,sale,True,True,920000.0,2244.0,82878698,chalet,Madrid,6,False,410.0,good,"{'subtitle': 'Aravaca, Madrid', 'title': 'Chalet pareado'}",https://img3.idealista.com/blur/WEB_LISTING/0/id.pro.es.image.master/b2/f5/6e/643539853.jpg,https://www.idealista.com/inmueble/82878698/
Camino del Golf,7,es,"{'typology': 'chalet', 'subTypology': 'independantHouse'}",10886,La Moraleja,False,VC10646,,False,True,,True,True,40.5179226,-3.6194974,La Moraleja,,False,58,sale,True,True,3200000.0,4000.0,84592615,chalet,Madrid,7,False,800.0,good,"{'subtitle': 'La Moraleja, La Moraleja', 'title': 'Casa independiente en Camino del Golf'}",https://img3.idealista.com/blur/WEB_LISTING/0/id.pro.es.image.master/5b/5a/4f/642993419.jpg,https://www.idealista.com/inmueble/84592615/
"Calle de Juan Bravo, Madrid",4,es,{'typology': 'flat'},3349,Salamanca,True,es135054,6,True,True,True,True,True,40.4338488,-3.6798429,Madrid,Lista,False,30,sale,True,True,1540000.0,6471.0,84553321,flat,Madrid,5,False,238.0,renew,"{'subtitle': 'Lista, Madrid', 'title': 'Piso en Calle de Juan Bravo, Madrid'}",https://img3.idealista.com/blur/WEB_LISTING/0/id.pro.es.image.master/01/05/c4/641685959.jpg,https://www.idealista.com/inmueble/84553321/
Encinar de los Reyes,5,es,"{'typology': 'chalet', 'subTypology': 'semidetachedHouse'}",8790,Encinar de los Reyes,False,QT135028,,True,True,,True,True,40.505288,-3.6378986,La Moraleja,,False,68,sale,True,True,1785000.0,4103.0,84563513,chalet,Madrid,5,False,435.0,good,"{'subtitle': 'Encinar de los Reyes, La Moraleja', 'title': 'Chalet pareado'}",https://img3.idealista.com/blur/WEB_LISTING/0/id.pro.es.image.master/43/8c/46/642208538.jpg,https://www.idealista.com/inmueble/84563513/
Encinar de los Reyes,5,es,"{'typology': 'chalet', 'subTypology': 'semidetachedHouse'}",8997,Encinar de los Reyes,False,TZ134487,,False,True,,True,True,40.5088323,-3.6390983,La Moraleja,,False,64,sale,True,True,1690000.0,3558.0,84393668,chalet,Madrid,5,False,475.0,good,"{'subtitle': 'Encinar de los Reyes, La Moraleja', 'title': 'Chalet pareado'}",https://img3.idealista.com/blur/WEB_LISTING/0/id.pro.es.image.master/26/28/19/638089434.jpg,https://www.idealista.com/inmueble/84393668/
"Calle López de Hoyos, 138",1,es,{'typology': 'flat'},3461,Chamartín,False,dg133294,2,False,True,True,True,True,40.4448963,-3.6725838,Madrid,Prosperidad,False,43,sale,,,349000.0,4653.0,84368226,flat,Madrid,2,True,75.0,good,"{'subtitle': 'Prosperidad, Madrid', 'title': 'Piso en Calle López de Hoyos, 138'}",https://img3.idealista.com/blur/WEB_LISTING/0/id.pro.es.image.master/34/75/14/638323440.jpg,https://www.idealista.com/inmueble/84368226/
"prado del rey, 4",6,es,"{'typology': 'chalet', 'subTypology': 'independantHouse'}",8288,Zona Prado de Somosaguas - La Finca,False,0678,,True,True,,True,True,40.414607,-3.7986611,Pozuelo de Alarcón,La Finca,False,48,sale,True,True,2900000.0,3625.0,81401246,chalet,Madrid,5,True,800.0,good,"{'subtitle': 'La Finca, Pozuelo de Alarcón', 'title': 'Casa independiente en prado del rey, 4'}",https://img3.idealista.com/blur/WEB_LISTING/0/id.pro.es.image.master/ec/11/77/576681493.jpg,https://www.idealista.com/inmueble/81401246/
"Calle de Luis Martinez Feduchi, 134",3,es,{'typology': 'flat'},7973,Encinar de los Reyes,True,V6016I,3,False,True,True,True,True,40.5006683,-3.6454795,La Moraleja,,False,41,sale,True,True,795000.0,4297.0,39350830,flat,Madrid,4,True,185.0,good,"{'subtitle': 'Encinar de los Reyes, La Moraleja', 'title': 'Piso en Calle de Luis Martinez Feduchi, 134'}",https://img3.idealista.com/blur/WEB_LISTING/0/id.pro.es.image.master/e4/a2/4f/643411029.jpg,https://www.idealista.com/inmueble/39350830/
"Calle del camino de hoyarrasa, 197",5,es,"{'typology': 'chalet', 'subTypology': 'independantHouse'}",12304,La Moraleja,False,V1381I,,True,True,,True,True,40.5255952,-3.605967,La Moraleja,,False,31,sale,True,True,1795000.0,2992.0,38940033,chalet,Madrid,5,True,600.0,,"{'subtitle': 'La Moraleja, La Moraleja', 'title': 'Casa independiente en Calle del camino de hoyarrasa, 197'}",https://img3.idealista.com/blur/WEB_LISTING/0/id.pro.es.image.master/61/6f/c7/643900675.jpg,https://www.idealista.com/inmueble/38940033/
barrio Valdemarín,4,es,{'typology': 'flat'},6829,Moncloa,True,PV7264I,bj,False,True,True,True,True,40.4660007,-3.7909409,Madrid,Valdemarín,False,41,sale,True,True,890000.0,5933.0,84363279,flat,Madrid,4,False,150.0,good,"{'subtitle': 'Valdemarín, Madrid', 'title': 'Piso'}",https://img3.idealista.com/blur/WEB_LISTING/0/id.pro.es.image.master/c2/57/0c/645382177.jpg,https://www.idealista.com/inmueble/84363279/
barrio La Finca,5,es,"{'typology': 'chalet', 'subTypology': 'semidetachedHouse'}",8441,Zona Prado de Somosaguas - La Finca,False,PV5857I,,False,True,,True,True,40.4162594,-3.8018479,Pozuelo de Alarcón,La Finca,False,40,sale,True,True,2250000.0,3968.0,82838939,chalet,Madrid,4,False,567.0,good,"{'subtitle': 'La Finca, Pozuelo de Alarcón', 'title': 'Chalet pareado'}",https://img3.idealista.com/blur/WEB_LISTING/0/id.pro.es.image.master/f2/50/57/646453238.jpg,https://www.idealista.com/inmueble/82838939/
"Avenida de la Vega, Alcobendas",1,es,{'typology': 'flat'},11957,Arroyo de la Vega,True,AP128177,3,True,True,True,True,True,40.5353772,-3.6259914,La Moraleja,,False,20,sale,True,True,378000.0,5400.0,82498724,flat,Madrid,2,False,70.0,good,"{'subtitle': 'Arroyo de la Vega, La Moraleja', 'title': 'Piso en Avenida de la Vega, Alcobendas'}",https://img3.idealista.com/blur/WEB_LISTING/0/id.pro.es.image.master/95/52/dd/599008541.jpg,https://www.idealista.com/inmueble/82498724/
Calle Dodge,2,es,{'typology': 'flat'},9388,Usera,True,BFU-V742,5,False,True,True,True,True,40.3660608,-3.711397,Madrid,Orcasitas,False,42,sale,True,True,217000.0,1764.0,84034109,flat,Madrid,2,False,123.0,good,"{'subtitle': 'Orcasitas, Madrid', 'title': 'Piso en Calle Dodge'}",https://img3.idealista.com/blur/WEB_LISTING/0/id.pro.es.image.master/60/61/3f/630411158.jpg,https://www.idealista.com/inmueble/84034109/
barrio Chueca-Justicia,1,es,{'typology': 'flat'},3301,Centro,True,VP-0872,2,False,True,False,True,True,40.4235319,-3.696493,Madrid,Chueca-Justicia,False,39,sale,,,490000.0,7424.0,83587722,flat,Madrid,1,False,66.0,good,"{'subtitle': 'Chueca-Justicia, Madrid', 'title': 'Piso'}",https://img3.idealista.com/blur/WEB_LISTING/0/id.pro.es.image.master/20/d0/7f/621031540.jpg,https://www.idealista.com/inmueble/83587722/
Calle de Diego de León,4,es,"{'typology': 'flat', 'subTypology': 'penthouse'}",3001,Salamanca,True,DS-P22120,8,True,True,True,True,True,40.4368776,-3.6822011,Madrid,Castellana,False,57,sale,,,1650000.0,7021.0,83637945,penthouse,Madrid,5,False,235.0,renew,"{'subtitle': 'Castellana, Madrid', 'title': 'Ático en Calle de Diego de León'}",https://img3.idealista.com/blur/WEB_LISTING/0/id.pro.es.image.master/1e/37/ea/641418021.jpg,https://www.idealista.com/inmueble/83637945/
Calle del Alto,8,es,"{'typology': 'chalet', 'subTypology': 'independantHouse'}",10355,Encinar de los Reyes,False,VC19942,,True,True,,True,True,40.5089059,-3.6174592,La Moraleja,,False,53,sale,True,True,4100000.0,4858.0,83453714,chalet,Madrid,9,False,844.0,good,"{'subtitle': 'Encinar de los Reyes, La Moraleja', 'title': 'Casa independiente en Calle del Alto'}",https://img3.idealista.com/blur/WEB_LISTING/0/id.pro.es.image.master/4f/51/2f/618308786.jpg,https://www.idealista.com/inmueble/83453714/
Camino MESONCILLOS,4,es,"{'typology': 'chalet', 'subTypology': 'independantHouse'}",11871,La Moraleja,False,VC19406,,False,True,,True,True,40.5221568,-3.6087652,La Moraleja,,False,58,sale,True,True,4200000.0,4217.0,38391652,chalet,Madrid,5,False,996.0,good,"{'subtitle': 'La Moraleja, La Moraleja', 'title': 'Casa independiente en Camino MESONCILLOS'}",https://img3.idealista.com/blur/WEB_LISTING/0/id.pro.es.image.master/b1/4e/64/235832035.jpg,https://www.idealista.com/inmueble/38391652/
Encinar de los Reyes,4,es,"{'typology': 'chalet', 'subTypology': 'semidetachedHouse'}",8676,Encinar de los Reyes,False,V6172I,,False,True,,True,True,40.504718,-3.6390609,La Moraleja,,False,41,sale,True,True,1150000.0,4792.0,83879740,chalet,Madrid,4,False,240.0,good,"{'subtitle': 'Encinar de los Reyes, La Moraleja', 'title': 'Chalet pareado'}",https://img3.idealista.com/blur/WEB_LISTING/0/id.pro.es.image.master/6c/c1/13/640033529.jpg,https://www.idealista.com/inmueble/83879740/
Encinar de los Reyes,5,es,"{'typology': 'chalet', 'subTypology': 'semidetachedHouse'}",8548,Encinar de los Reyes,False,V6115I,,False,True,,True,True,40.5058646,-3.6427008,La Moraleja,,False,41,sale,True,True,1385000.0,4328.0,83260835,chalet,Madrid,4,False,320.0,good,"{'subtitle': 'Encinar de los Reyes, La Moraleja', 'title': 'Chalet pareado'}",https://img3.idealista.com/blur/WEB_LISTING/0/id.pro.es.image.master/2d/d7/ca/642162158.jpg,https://www.idealista.com/inmueble/83260835/
barrio Aravaca,4,es,"{'typology': 'chalet', 'subTypology': 'semidetachedHouse'}",6648,Moncloa,False,PV7174I,,False,True,,True,True,40.4572032,-3.7909058,Madrid,Aravaca,False,41,sale,True,True,920000.0,2244.0,82878698,chalet,Madrid,6,False,410.0,good,"{'subtitle': 'Aravaca, Madrid', 'title': 'Chalet pareado'}",https://img3.idealista.com/blur/WEB_LISTING/0/id.pro.es.image.master/b2/f5/6e/643539853.jpg,https://www.idealista.com/inmueble/82878698/
Camino del Golf,7,es,"{'typology': 'chalet', 'subTypology': 'independantHouse'}",10886,La Moraleja,False,VC10646,,False,True,,True,True,40.5179226,-3.6194974,La Moraleja,,False,58,sale,True,True,3200000.0,4000.0,84592615,chalet,Madrid,7,False,800.0,good,"{'subtitle': 'La Moraleja, La Moraleja', 'title': 'Casa independiente en Camino del Golf'}",https://img3.idealista.com/blur/WEB_LISTING/0/id.pro.es.image.master/5b/5a/4f/642993419.jpg,https://www.idealista.com/inmueble/84592615/
"Calle de Juan Bravo, Madrid",4,es,{'typology': 'flat'},3349,Salamanca,True,es135054,6,True,True,True,True,True,40.4338488,-3.6798429,Madrid,Lista,False,30,sale,True,True,1540000.0,6471.0,84553321,flat,Madrid,5,False,238.0,renew,"{'subtitle': 'Lista, Madrid', 'title': 'Piso en Calle de Juan Bravo, Madrid'}",https://img3.idealista.com/blur/WEB_LISTING/0/id.pro.es.image.master/01/05/c4/641685959.jpg,https://www.idealista.com/inmueble/84553321/
Encinar de los Reyes,5,es,"{'typology': 'chalet', 'subTypology': 'semidetachedHouse'}",8790,Encinar de los Reyes,False,QT135028,,True,True,,True,True,40.505288,-3.6378986,La Moraleja,,False,68,sale,True,True,1785000.0,4103.0,84563513,chalet,Madrid,5,False,435.0,good,"{'subtitle': 'Encinar de los Reyes, La Moraleja', 'title': 'Chalet pareado'}",https://img3.idealista.com/blur/WEB_LISTING/0/id.pro.es.image.master/43/8c/46/642208538.jpg,https://www.idealista.com/inmueble/84563513/
Encinar de los Reyes,5,es,"{'typology': 'chalet', 'subTypology': 'semidetachedHouse'}",8997,Encinar de los Reyes,False,TZ134487,,False,True,,True,True,40.5088323,-3.6390983,La Moraleja,,False,64,sale,True,True,1690000.0,3558.0,84393668,chalet,Madrid,5,False,475.0,good,"{'subtitle': 'Encinar de los Reyes, La Moraleja', 'title': 'Chalet pareado'}",https://img3.idealista.com/blur/WEB_LISTING/0/id.pro.es.image.master/26/28/19/638089434.jpg,https://www.idealista.com/inmueble/84393668/
"Calle López de Hoyos, 138",1,es,{'typology': 'flat'},3461,Chamartín,False,dg133294,2,False,True,True,True,True,40.4448963,-3.6725838,Madrid,Prosperidad,False,43,sale,,,349000.0,4653.0,84368226,flat,Madrid,2,True,75.0,good,"{'subtitle': 'Prosperidad, Madrid', 'title': 'Piso en Calle López de Hoyos, 138'}",https://img3.idealista.com/blur/WEB_LISTING/0/id.pro.es.image.master/34/75/14/638323440.jpg,https://www.idealista.com/inmueble/84368226/
"prado del rey, 4",6,es,"{'typology': 'chalet', 'subTypology': 'independantHouse'}",8288,Zona Prado de Somosaguas - La Finca,False,0678,,True,True,,True,True,40.414607,-3.7986611,Pozuelo de Alarcón,La Finca,False,48,sale,True,True,2900000.0,3625.0,81401246,chalet,Madrid,5,True,800.0,good,"{'subtitle': 'La Finca, Pozuelo de Alarcón', 'title': 'Casa independiente en prado del rey, 4'}",https://img3.idealista.com/blur/WEB_LISTING/0/id.pro.es.image.master/ec/11/77/576681493.jpg,https://www.idealista.com/inmueble/81401246/
"Calle Núñez de Balboa, 11",2,es,{'typology': 'flat'},3986,Salamanca,True,422437,6,False,True,True,True,True,40.4227044,-3.6830602,Madrid,Recoletos,False,69,sale,,,925000.0,9343.0,40147837,flat,Madrid,2,True,99.0,good,"{'subtitle': 'Recoletos, Madrid', 'title': 'Piso en Calle Núñez de Balboa, 11'}",https://img3.idealista.com/blur/WEB_LISTING/0/id.pro.es.image.master/c3/e4/52/586671522.jpg,https://www.idealista.com/inmueble/40147837/
"Calle de Luis Martinez Feduchi, 134",3,es,{'typology': 'flat'},7973,Encinar de los Reyes,True,V6016I,3,False,True,True,True,True,40.5006683,-3.6454795,La Moraleja,,False,41,sale,True,True,795000.0,4297.0,39350830,flat,Madrid,4,True,185.0,good,"{'subtitle': 'Encinar de los Reyes, La Moraleja', 'title': 'Piso en Calle de Luis Martinez Feduchi, 134'}",https://img3.idealista.com/blur/WEB_LISTING/0/id.pro.es.image.master/e4/a2/4f/643411029.jpg,https://www.idealista.com/inmueble/39350830/
"Calle del camino de hoyarrasa, 197",5,es,"{'typology': 'chalet', 'subTypology': 'independantHouse'}",12304,La Moraleja,False,V1381I,,True,True,,True,True,40.5255952,-3.605967,La Moraleja,,False,31,sale,True,True,1795000.0,2992.0,38940033,chalet,Madrid,5,True,600.0,,"{'subtitle': 'La Moraleja, La Moraleja', 'title': 'Casa independiente en Calle del camino de hoyarrasa, 197'}",https://img3.idealista.com/blur/WEB_LISTING/0/id.pro.es.image.master/61/6f/c7/643900675.jpg,https://www.idealista.com/inmueble/38940033/
barrio Valdemarín,4,es,{'typology': 'flat'},6829,Moncloa,True,PV7264I,bj,False,True,True,True,True,40.4660007,-3.7909409,Madrid,Valdemarín,False,41,sale,True,True,890000.0,5933.0,84363279,flat,Madrid,4,False,150.0,good,"{'subtitle': 'Valdemarín, Madrid', 'title': 'Piso'}",https://img3.idealista.com/blur/WEB_LISTING/0/id.pro.es.image.master/c2/57/0c/645382177.jpg,https://www.idealista.com/inmueble/84363279/
barrio La Finca,5,es,"{'typology': 'chalet', 'subTypology': 'semidetachedHouse'}",8441,Zona Prado de Somosaguas - La Finca,False,PV5857I,,False,True,,True,True,40.4162594,-3.8018479,Pozuelo de Alarcón,La Finca,False,40,sale,True,True,2250000.0,3968.0,82838939,chalet,Madrid,4,False,567.0,good,"{'subtitle': 'La Finca, Pozuelo de Alarcón', 'title': 'Chalet pareado'}",https://img3.idealista.com/blur/WEB_LISTING/0/id.pro.es.image.master/f2/50/57/646453238.jpg,https://www.idealista.com/inmueble/82838939/
"Avenida de la Vega, Alcobendas",1,es,{'typology': 'flat'},11957,Arroyo de la Vega,True,AP128177,3,True,True,True,True,True,40.5353772,-3.6259914,La Moraleja,,False,20,sale,True,True,378000.0,5400.0,82498724,flat,Madrid,2,False,70.0,good,"{'subtitle': 'Arroyo de la Vega, La Moraleja', 'title': 'Piso en Avenida de la Vega, Alcobendas'}",https://img3.idealista.com/blur/WEB_LISTING/0/id.pro.es.image.master/95/52/dd/599008541.jpg,https://www.idealista.com/inmueble/82498724/
Calle Dodge,2,es,{'typology': 'flat'},9388,Usera,True,BFU-V742,5,False,True,True,True,True,40.3660608,-3.711397,Madrid,Orcasitas,False,42,sale,True,True,217000.0,1764.0,84034109,flat,Madrid,2,False,123.0,good,"{'subtitle': 'Orcasitas, Madrid', 'title': 'Piso en Calle Dodge'}",https://img3.idealista.com/blur/WEB_LISTING/0/id.pro.es.image.master/60/61/3f/630411158.jpg,https://www.idealista.com/inmueble/84034109/
barrio Chueca-Justicia,1,es,{'typology': 'flat'},3301,Centro,True,VP-0872,2,False,True,False,True,True,40.4235319,-3.696493,Madrid,Chueca-Justicia,False,39,sale,,,490000.0,7424.0,83587722,flat,Madrid,1,False,66.0,good,"{'subtitle': 'Chueca-Justicia, Madrid', 'title': 'Piso'}",https://img3.idealista.com/blur/WEB_LISTING/0/id.pro.es.image.master/20/d0/7f/621031540.jpg,https://www.idealista.com/inmueble/83587722/
Calle de Diego de León,4,es,"{'typology': 'flat', 'subTypology': 'penthouse'}",3001,Salamanca,True,DS-P22120,8,True,True,True,True,True,40.4368776,-3.6822011,Madrid,Castellana,False,57,sale,,,1650000.0,7021.0,83637945,penthouse,Madrid,5,False,235.0,renew,"{'subtitle': 'Castellana, Madrid', 'title': 'Ático en Calle de Diego de León'}",https://img3.idealista.com/blur/WEB_LISTING/0/id.pro.es.image.master/1e/37/ea/641418021.jpg,https://www.idealista.com/inmueble/83637945/
Calle del Alto,8,es,"{'typology': 'chalet', 'subTypology': 'independantHouse'}",10355,Encinar de los Reyes,False,VC19942,,True,True,,True,True,40.5089059,-3.6174592,La Moraleja,,False,53,sale,True,True,4100000.0,4858.0,83453714,chalet,Madrid,9,False,844.0,good,"{'subtitle': 'Encinar de los Reyes, La Moraleja', 'title': 'Casa independiente en Calle del Alto'}",https://img3.idealista.com/blur/WEB_LISTING/0/id.pro.es.image.master/4f/51/2f/618308786.jpg,https://www.idealista.com/inmueble/83453714/
Camino MESONCILLOS,4,es,"{'typology': 'chalet', 'subTypology': 'independantHouse'}",11871,La Moraleja,False,VC19406,,False,True,,True,True,40.5221568,-3.6087652,La Moraleja,,False,58,sale,True,True,4200000.0,4217.0,38391652,chalet,Madrid,5,False,996.0,good,"{'subtitle': 'La Moraleja, La Moraleja', 'title': 'Casa independiente en Camino MESONCILLOS'}",https://img3.idealista.com/blur/WEB_LISTING/0/id.pro.es.image.master/b1/4e/64/235832035.jpg,https://www.idealista.com/inmueble/38391652/
Encinar de los Reyes,4,es,"{'typology': 'chalet', 'subTypology': 'semidetachedHouse'}",8676,Encinar de los Reyes,False,V6172I,,False,True,,True,True,40.504718,-3.6390609,La Moraleja,,False,41,sale,True,True,1150000.0,4792.0,83879740,chalet,Madrid,4,False,240.0,good,"{'subtitle': 'Encinar de los Reyes, La Moraleja', 'title': 'Chalet pareado'}",https://img3.idealista.com/blur/WEB_LISTING/0/id.pro.es.image.master/6c/c1/13/640033529.jpg,https://www.idealista.com/inmueble/83879740/
Encinar de los Reyes,5,es,"{'typology': 'chalet', 'subTypology': 'semidetachedHouse'}",8548,Encinar de los Reyes,False,V6115I,,False,True,,True,True,40.5058646,-3.6427008,La Moraleja,,False,41,sale,True,True,1385000.0,4328.0,83260835,chalet,Madrid,4,False,320.0,good,"{'subtitle': 'Encinar de los Reyes, La Moraleja', 'title': 'Chalet pareado'}",https://img3.idealista.com/blur/WEB_LISTING/0/id.pro.es.image.master/2d/d7/ca/642162158.jpg,https://www.idealista.com/inmueble/83260835/
barrio Aravaca,4,es,"{'typology': 'chalet', 'subTypology': 'semidetachedHouse'}",6648,Moncloa,False,PV7174I,,False,True,,True,True,40.4572032,-3.7909058,Madrid,Aravaca,False,41,sale,True,True,920000.0,2244.0,82878698,chalet,Madrid,6,False,410.0,good,"{'subtitle': 'Aravaca, Madrid', 'title': 'Chalet pareado'}",https://img3.idealista.com/blur/WEB_LISTING/0/id.pro.es.image.master/b2/f5/6e/643539853.jpg,https://www.idealista.com/inmueble/82878698/
Camino del Golf,7,es,"{'typology': 'chalet', 'subTypology': 'independantHouse'}",10886,La Moraleja,False,VC10646,,False,True,,True,True,40.5179226,-3.6194974,La Moraleja,,False,58,sale,True,True,3200000.0,4000.0,84592615,chalet,Madrid,7,False,800.0,good,"{'subtitle': 'La Moraleja, La Moraleja', 'title': 'Casa independiente en Camino del Golf'}",https://img3.idealista.com/blur/WEB_LISTING/0/id.pro.es.image.master/5b/5a/4f/642993419.jpg,https://www.idealista.com/inmueble/84592615/
"Calle de Juan Bravo, Madrid",4,es,{'typology': 'flat'},3349,Salamanca,True,es135054,6,True,True,True,True,True,40.4338488,-3.6798429,Madrid,Lista,False,30,sale,True,True,1540000.0,6471.0,84553321,flat,Madrid,5,False,238.0,renew,"{'subtitle': 'Lista, Madrid', 'title': 'Piso en Calle de Juan Bravo, Madrid'}",https://img3.idealista.com/blur/WEB_LISTING/0/id.pro.es.image.master/01/05/c4/641685959.jpg,https://www.idealista.com/inmueble/84553321/
Encinar de los Reyes,5,es,"{'typology': 'chalet', 'subTypology': 'semidetachedHouse'}",8790,Encinar de los Reyes,False,QT135028,,True,True,,True,True,40.505288,-3.6378986,La Moraleja,,False,68,sale,True,True,1785000.0,4103.0,84563513,chalet,Madrid,5,False,435.0,good,"{'subtitle': 'Encinar de los Reyes, La Moraleja', 'title': 'Chalet pareado'}",https://img3.idealista.com/blur/WEB_LISTING/0/id.pro.es.image.master/43/8c/46/642208538.jpg,https://www.idealista.com/inmueble/84563513/
Encinar de los Reyes,5,es,"{'typology': 'chalet', 'subTypology': 'semidetachedHouse'}",8997,Encinar de los Reyes,False,TZ134487,,False,True,,True,True,40.5088323,-3.6390983,La Moraleja,,False,64,sale,True,True,1690000.0,3558.0,84393668,chalet,Madrid,5,False,475.0,good,"{'subtitle': 'Encinar de los Reyes, La Moraleja', 'title': 'Chalet pareado'}",https://img3.idealista.com/blur/WEB_LISTING/0/id.pro.es.image.master/26/28/19/638089434.jpg,https://www.idealista.com/inmueble/84393668/
"Calle López de Hoyos, 138",1,es,{'typology': 'flat'},3461,Chamartín,False,dg133294,2,False,True,True,True,True,40.4448963,-3.6725838,Madrid,Prosperidad,False,43,sale,,,349000.0,4653.0,84368226,flat,Madrid,2,True,75.0,good,"{'subtitle': 'Prosperidad, Madrid', 'title': 'Piso en Calle López de Hoyos, 138'}",https://img3.idealista.com/blur/WEB_LISTING/0/id.pro.es.image.master/34/75/14/638323440.jpg,https://www.idealista.com/inmueble/84368226/
"prado del rey, 4",6,es,"{'typology': 'chalet', 'subTypology': 'independantHouse'}",8288,Zona Prado de Somosaguas - La Finca,False,0678,,True,True,,True,True,40.414607,-3.7986611,Pozuelo de Alarcón,La Finca,False,48,sale,True,True,2900000.0,3625.0,81401246,chalet,Madrid,5,True,800.0,good,"{'subtitle': 'La Finca, Pozuelo de Alarcón', 'title': 'Casa independiente en prado del rey, 4'}",https://img3.idealista.com/blur/WEB_LISTING/0/id.pro.es.image.master/ec/11/77/576681493.jpg,https://www.idealista.com/inmueble/81401246/
"Calle Núñez de Balboa, 11",2,es,{'typology': 'flat'},3986,Salamanca,True,422437,6,False,True,True,True,True,40.4227044,-3.6830602,Madrid,Recoletos,False,69,sale,,,925000.0,9343.0,40147837,flat,Madrid,2,True,99.0,good,"{'subtitle': 'Recoletos, Madrid', 'title': 'Piso en Calle Núñez de Balboa, 11'}",https://img3.idealista.com/blur/WEB_LISTING/0/id.pro.es.image.master/c3/e4/52/586671522.jpg,https://www.idealista.com/inmueble/40147837/
"Calle de Luis Martinez Feduchi, 134",3,es,{'typology': 'flat'},7973,Encinar de los Reyes,True,V6016I,3,False,True,True,True,True,40.5006683,-3.6454795,La Moraleja,,False,41,sale,True,True,795000.0,4297.0,39350830,flat,Madrid,4,True,185.0,good,"{'subtitle': 'Encinar de los Reyes, La Moraleja', 'title': 'Piso en Calle de Luis Martinez Feduchi, 134'}",https://img3.idealista.com/blur/WEB_LISTING/0/id.pro.es.image.master/e4/a2/4f/643411029.jpg,https://www.idealista.com/inmueble/39350830/
"Calle del camino de hoyarrasa, 197",5,es,"{'typology': 'chalet', 'subTypology': 'independantHouse'}",12304,La Moraleja,False,V1381I,,True,True,,True,True,40.5255952,-3.605967,La Moraleja,,False,31,sale,True,True,1795000.0,2992.0,38940033,chalet,Madrid,5,True,600.0,,"{'subtitle': 'La Moraleja, La Moraleja', 'title': 'Casa independiente en Calle del camino de hoyarrasa, 197'}",https://img3.idealista.com/blur/WEB_LISTING/0/id.pro.es.image.master/61/6f/c7/643900675.jpg,https://www.idealista.com/inmueble/38940033/
barrio Valdemarín,4,es,{'typology': 'flat'},6829,Moncloa,True,PV7264I,bj,False,True,True,True,True,40.4660007,-3.7909409,Madrid,Valdemarín,False,41,sale,True,True,890000.0,5933.0,84363279,flat,Madrid,4,False,150.0,good,"{'subtitle': 'Valdemarín, Madrid', 'title': 'Piso'}",https://img3.idealista.com/blur/WEB_LISTING/0/id.pro.es.image.master/c2/57/0c/645382177.jpg,https://www.idealista.com/inmueble/84363279/
barrio La Finca,5,es,"{'typology': 'chalet', 'subTypology': 'semidetachedHouse'}",8441,Zona Prado de Somosaguas - La Finca,False,PV5857I,,False,True,,True,True,40.4162594,-3.8018479,Pozuelo de Alarcón,La Finca,False,40,sale,True,True,2250000.0,3968.0,82838939,chalet,Madrid,4,False,567.0,good,"{'subtitle': 'La Finca, Pozuelo de Alarcón', 'title': 'Chalet pareado'}",https://img3.idealista.com/blur/WEB_LISTING/0/id.pro.es.image.master/f2/50/57/646453238.jpg,https://www.idealista.com/inmueble/82838939/
"Avenida de la Vega, Alcobendas",1,es,{'typology': 'flat'},11957,Arroyo de la Vega,True,AP128177,3,True,True,True,True,True,40.5353772,-3.6259914,La Moraleja,,False,20,sale,True,True,378000.0,5400.0,82498724,flat,Madrid,2,False,70.0,good,"{'subtitle': 'Arroyo de la Vega, La Moraleja', 'title': 'Piso en Avenida de la Vega, Alcobendas'}",https://img3.idealista.com/blur/WEB_LISTING/0/id.pro.es.image.master/95/52/dd/599008541.jpg,https://www.idealista.com/inmueble/82498724/
Calle Dodge,2,es,{'typology': 'flat'},9388,Usera,True,BFU-V742,5,False,True,True,True,True,40.3660608,-3.711397,Madrid,Orcasitas,False,42,sale,True,True,217000.0,1764.0,84034109,flat,Madrid,2,False,123.0,good,"{'subtitle': 'Orcasitas, Madrid', 'title': 'Piso en Calle Dodge'}",https://img3.idealista.com/blur/WEB_LISTING/0/id.pro.es.image.master/60/61/3f/630411158.jpg,https://www.idealista.com/inmueble/84034109/
barrio Chueca-Justicia,1,es,{'typology': 'flat'},3301,Centro,True,VP-0872,2,False,True,False,True,True,40.4235319,-3.696493,Madrid,Chueca-Justicia,False,39,sale,,,490000.0,7424.0,83587722,flat,Madrid,1,False,66.0,good,"{'subtitle': 'Chueca-Justicia, Madrid', 'title': 'Piso'}",https://img3.idealista.com/blur/WEB_LISTING/0/id.pro.es.image.master/20/d0/7f/621031540.jpg,https://www.idealista.com/inmueble/83587722/
Calle de Diego de León,4,es,"{'typology': 'flat', 'subTypology': 'penthouse'}",3001,Salamanca,True,DS-P22120,8,True,True,True,True,True,40.4368776,-3.6822011,Madrid,Castellana,False,57,sale,,,1650000.0,7021.0,83637945,penthouse,Madrid,5,False,235.0,renew,"{'subtitle': 'Castellana, Madrid', 'title': 'Ático en Calle de Diego de León'}",https://img3.idealista.com/blur/WEB_LISTING/0/id.pro.es.image.master/1e/37/ea/641418021.jpg,https://www.idealista.com/inmueble/83637945/
Calle del Alto,8,es,"{'typology': 'chalet', 'subTypology': 'independantHouse'}",10355,Encinar de los Reyes,False,VC19942,,True,True,,True,True,40.5089059,-3.6174592,La Moraleja,,False,53,sale,True,True,4100000.0,4858.0,83453714,chalet,Madrid,9,False,844.0,good,"{'subtitle': 'Encinar de los Reyes, La Moraleja', 'title': 'Casa independiente en Calle del Alto'}",https://img3.idealista.com/blur/WEB_LISTING/0/id.pro.es.image.master/4f/51/2f/618308786.jpg,https://www.idealista.com/inmueble/83453714/
Camino MESONCILLOS,4,es,"{'typology': 'chalet', 'subTypology': 'independantHouse'}",11871,La Moraleja,False,VC19406,,False,True,,True,True,40.5221568,-3.6087652,La Moraleja,,False,58,sale,True,True,4200000.0,4217.0,38391652,chalet,Madrid,5,False,996.0,good,"{'subtitle': 'La Moraleja, La Moraleja', 'title': 'Casa independiente en Camino MESONCILLOS'}",https://img3.idealista.com/blur/WEB_LISTING/0/id.pro.es.image.master/b1/4e/64/235832035.jpg,https://www.idealista.com/inmueble/38391652/
Encinar de los Reyes,4,es,"{'typology': 'chalet', 'subTypology': 'semidetachedHouse'}",8676,Encinar de los Reyes,False,V6172I,,False,True,,True,True,40.504718,-3.6390609,La Moraleja,,False,41,sale,True,True,1150000.0,4792.0,83879740,chalet,Madrid,4,False,240.0,good,"{'subtitle': 'Encinar de los Reyes, La Moraleja', 'title': 'Chalet pareado'}",https://img3.idealista.com/blur/WEB_LISTING/0/id.pro.es.image.master/6c/c1/13/640033529.jpg,https://www.idealista.com/inmueble/83879740/
Encinar de los Reyes,5,es,"{'typology': 'chalet', 'subTypology': 'semidetachedHouse'}",8548,Encinar de los Reyes,False,V6115I,,False,True,,True,True,40.5058646,-3.6427008,La Moraleja,,False,41,sale,True,True,1385000.0,4328.0,83260835,chalet,Madrid,4,False,320.0,good,"{'subtitle': 'Encinar de los Reyes, La Moraleja', 'title': 'Chalet pareado'}",https://img3.idealista.com/blur/WEB_LISTING/0/id.pro.es.image.master/2d/d7/ca/642162158.jpg,https://www.idealista.com/inmueble/83260835/
barrio Aravaca,4,es,"{'typology': 'chalet', 'subTypology': 'semidetachedHouse'}",6648,Moncloa,False,PV7174I,,False,True,,True,True,40.4572032,-3.7909058,Madrid,Aravaca,False,41,sale,True,True,920000.0,2244.0,82878698,chalet,Madrid,6,False,410.0,good,"{'subtitle': 'Aravaca, Madrid', 'title': 'Chalet pareado'}",https://img3.idealista.com/blur/WEB_LISTING/0/id.pro.es.image.master/b2/f5/6e/643539853.jpg,https://www.idealista.com/inmueble/82878698/
Camino del Golf,7,es,"{'typology': 'chalet', 'subTypology': 'independantHouse'}",10886,La Moraleja,False,VC10646,,False,True,,True,True,40.5179226,-3.6194974,La Moraleja,,False,58,sale,True,True,3200000.0,4000.0,84592615,chalet,Madrid,7,False,800.0,good,"{'subtitle': 'La Moraleja, La Moraleja', 'title': 'Casa independiente en Camino del Golf'}",https://img3.idealista.com/blur/WEB_LISTING/0/id.pro.es.image.master/5b/5a/4f/642993419.jpg,https://www.idealista.com/inmueble/84592615/
"Calle de Juan Bravo, Madrid",4,es,{'typology': 'flat'},3349,Salamanca,True,es135054,6,True,True,True,True,True,40.4338488,-3.6798429,Madrid,Lista,False,30,sale,True,True,1540000.0,6471.0,84553321,flat,Madrid,5,False,238.0,renew,"{'subtitle': 'Lista, Madrid', 'title': 'Piso en Calle de Juan Bravo, Madrid'}",https://img3.idealista.com/blur/WEB_LISTING/0/id.pro.es.image.master/01/05/c4/641685959.jpg,https://www.idealista.com/inmueble/84553321/
Encinar de los Reyes,5,es,"{'typology': 'chalet', 'subTypology': 'semidetachedHouse'}",8790,Encinar de los Reyes,False,QT135028,,True,True,,True,True,40.505288,-3.6378986,La Moraleja,,False,68,sale,True,True,1785000.0,4103.0,84563513,chalet,Madrid,5,False,435.0,good,"{'subtitle': 'Encinar de los Reyes, La Moraleja', 'title': 'Chalet pareado'}",https://img3.idealista.com/blur/WEB_LISTING/0/id.pro.es.image.master/43/8c/46/642208538.jpg,https://www.idealista.com/inmueble/84563513/
Encinar de los Reyes,5,es,"{'typology': 'chalet', 'subTypology': 'semidetachedHouse'}",8997,Encinar de los Reyes,False,TZ134487,,False,True,,True,True,40.5088323,-3.6390983,La Moraleja,,False,64,sale,True,True,1690000.0,3558.0,84393668,chalet,Madrid,5,False,475.0,good,"{'subtitle': 'Encinar de los Reyes, La Moraleja', 'title': 'Chalet pareado'}",https://img3.idealista.com/blur/WEB_LISTING/0/id.pro.es.image.master/26/28/19/638089434.jpg,https://www.idealista.com/inmueble/84393668/
"Calle López de Hoyos, 138",1,es,{'typology': 'flat'},3461,Chamartín,False,dg133294,2,False,True,True,True,True,40.4448963,-3.6725838,Madrid,Prosperidad,False,43,sale,,,349000.0,4653.0,84368226,flat,Madrid,2,True,75.0,good,"{'subtitle': 'Prosperidad, Madrid', 'title': 'Piso en Calle López de Hoyos, 138'}",https://img3.idealista.com/blur/WEB_LISTING/0/id.pro.es.image.master/34/75/14/638323440.jpg,https://www.idealista.com/inmueble/84368226/
"prado del rey, 4",6,es,"{'typology': 'chalet', 'subTypology': 'independantHouse'}",8288,Zona Prado de Somosaguas - La Finca,False,0678,,True,True,,True,True,40.414607,-3.7986611,Pozuelo de Alarcón,La Finca,False,48,sale,True,True,2900000.0,3625.0,81401246,chalet,Madrid,5,True,800.0,good,"{'subtitle': 'La Finca, Pozuelo de Alarcón', 'title': 'Casa independiente en prado del rey, 4'}",https://img3.idealista.com/blur/WEB_LISTING/0/id.pro.es.image.master/ec/11/77/576681493.jpg,https://www.idealista.com/inmueble/81401246/
"Calle Núñez de Balboa, 11",2,es,{'typology': 'flat'},3986,Salamanca,True,422437,6,False,True,True,True,True,40.4227044,-3.6830602,Madrid,Recoletos,False,69,sale,,,925000.0,9343.0,40147837,flat,Madrid,2,True,99.0,good,"{'subtitle': 'Recoletos, Madrid', 'title': 'Piso en Calle Núñez de Balboa, 11'}",https://img3.idealista.com/blur/WEB_LISTING/0/id.pro.es.image.master/c3/e4/52/586671522.jpg,https://www.idealista.com/inmueble/40147837/
"Calle de Luis Martinez Feduchi, 134",3,es,{'typology': 'flat'},7973,Encinar de los Reyes,True,V6016I,3,False,True,True,True,True,40.5006683,-3.6454795,La Moraleja,,False,41,sale,True,True,795000.0,4297.0,39350830,flat,Madrid,4,True,185.0,good,"{'subtitle': 'Encinar de los Reyes, La Moraleja', 'title': 'Piso en Calle de Luis Martinez Feduchi, 134'}",https://img3.idealista.com/blur/WEB_LISTING/0/id.pro.es.image.master/e4/a2/4f/643411029.jpg,https://www.idealista.com/inmueble/39350830/
"Calle del camino de hoyarrasa, 197",5,es,"{'typology': 'chalet', 'subTypology': 'independantHouse'}",12304,La Moraleja,False,V1381I,,True,True,,True,True,40.5255952,-3.605967,La Moraleja,,False,31,sale,True,True,1795000.0,2992.0,38940033,chalet,Madrid,5,True,600.0,,"{'subtitle': 'La Moraleja, La Moraleja', 'title': 'Casa independiente en Calle del camino de hoyarrasa, 197'}",https://img3.idealista.com/blur/WEB_LISTING/0/id.pro.es.image.master/61/6f/c7/643900675.jpg,https://www.idealista.com/inmueble/38940033/
barrio Valdemarín,4,es,{'typology': 'flat'},6829,Moncloa,True,PV7264I,bj,False,True,True,True,True,40.4660007,-3.7909409,Madrid,Valdemarín,False,41,sale,True,True,890000.0,5933.0,84363279,flat,Madrid,4,False,150.0,good,"{'subtitle': 'Valdemarín, Madrid', 'title': 'Piso'}",https://img3.idealista.com/blur/WEB_LISTING/0/id.pro.es.image.master/c2/57/0c/645382177.jpg,https://www.idealista.com/inmueble/84363279/
barrio La Finca,5,es,"{'typology': 'chalet', 'subTypology': 'semidetachedHouse'}",8441,Zona Prado de Somosaguas - La Finca,False,PV5857I,,False,True,,True,True,40.4162594,-3.8018479,Pozuelo de Alarcón,La Finca,False,40,sale,True,True,2250000.0,3968.0,82838939,chalet,Madrid,4,False,567.0,good,"{'subtitle': 'La Finca, Pozuelo de Alarcón', 'title': 'Chalet pareado'}",https://img3.idealista.com/blur/WEB_LISTING/0/id.pro.es.image.master/f2/50/57/646453238.jpg,https://www.idealista.com/inmueble/82838939/
"Avenida de la Vega, Alcobendas",1,es,{'typology': 'flat'},11957,Arroyo de la Vega,True,AP128177,3,True,True,True,True,True,40.5353772,-3.6259914,La Moraleja,,False,20,sale,True,True,378000.0,5400.0,82498724,flat,Madrid,2,False,70.0,good,"{'subtitle': 'Arroyo de la Vega, La Moraleja', 'title': 'Piso en Avenida de la Vega, Alcobendas'}",https://img3.idealista.com/blur/WEB_LISTING/0/id.pro.es.image.master/95/52/dd/599008541.jpg,https://www.idealista.com/inmueble/82498724/
Calle Dodge,2,es,{'typology': 'flat'},9388,Usera,True,BFU-V742,5,False,True,True,True,True,40.3660608,-3.711397,Madrid,Orcasitas,False,42,sale,True,True,217000.0,1764.0,84034109,flat,Madrid,2,False,123.0,good,"{'subtitle': 'Orcasitas, Madrid', 'title': 'Piso en Calle Dodge'}",https://img3.idealista.com/blur/WEB_LISTING/0/id.pro.es.image.master/60/61/3f/630411158.jpg,https://www.idealista.com/inmueble/84034109/
barrio Chueca-Justicia,1,es,{'typology': 'flat'},3301,Centro,True,VP-0872,2,False,True,False,True,True,40.4235319,-3.696493,Madrid,Chueca-Justicia,False,39,sale,,,490000.0,7424.0,83587722,flat,Madrid,1,False,66.0,good,"{'subtitle': 'Chueca-Justicia, Madrid', 'title': 'Piso'}",https://img3.idealista.com/blur/WEB_LISTING/0/id.pro.es.image.master/20/d0/7f/621031540.jpg,https://www.idealista.com/inmueble/83587722/
Calle de Diego de León,4,es,"{'typology': 'flat', 'subTypology': 'penthouse'}",3001,Salamanca,True,DS-P22120,8,True,True,True,True,True,40.4368776,-3.6822011,Madrid,Castellana,False,57,sale,,,1650000.0,7021.0,83637945,penthouse,Madrid,5,False,235.0,renew,"{'subtitle': 'Castellana, Madrid', 'title': 'Ático en Calle de Diego de León'}",https://img3.idealista.com/blur/WEB_LISTING/0/id.pro.es.image.master/1e/37/ea/641418021.jpg,https://www.idealista.com/inmueble/83637945/
Calle del Alto,8,es,"{'typology': 'chalet', 'subTypology': 'independantHouse'}",10355,Encinar de los Reyes,False,VC19942,,True,True,,True,True,40.5089059,-3.6174592,La Moraleja,,False,53,sale,True,True,4100000.0,4858.0,83453714,chalet,Madrid,9,False,844.0,good,"{'subtitle': 'Encinar de los Reyes, La Moraleja', 'title': 'Casa independiente en Calle del Alto'}",https://img3.idealista.com/blur/WEB_LISTING/0/id.pro.es.image.master/4f/51/2f/618308786.jpg,https://www.idealista.com/inmueble/83453714/
Camino MESONCILLOS,4,es,"{'typology': 'chalet', 'subTypology': 'independantHouse'}",11871,La Moraleja,False,VC19406,,False,True,,True,True,40.5221568,-3.6087652,La Moraleja,,False,58,sale,True,True,4200000.0,4217.0,38391652,chalet,Madrid,5,False,996.0,good,"{'subtitle': 'La Moraleja, La Moraleja', 'title': 'Casa independiente en Camino MESONCILLOS'}",https://img3.idealista.com/blur/WEB_LISTING/0/id.pro.es.image.master/b1/4e/64/235832035.jpg,https://www.idealista.com/inmueble/38391652/
Encinar de los Reyes,4,es,"{'typology': 'chalet', 'subTypology': 'semidetachedHouse'}",8676,Encinar de los Reyes,False,V6172I,,False,True,,True,True,40.504718,-3.6390609,La Moraleja,,False,41,sale,True,True,1150000.0,4792.0,83879740,chalet,Madrid,4,False,240.0,good,"{'subtitle': 'Encinar de los Reyes, La Moraleja', 'title': 'Chalet pareado'}",https://img3.idealista.com/blur/WEB_LISTING/0/id.pro.es.image.master/6c/c1/13/640033529.jpg,https://www.idealista.com/inmueble/83879740/
Encinar de los Reyes,5,es,"{'typology': 'chalet', 'subTypology': 'semidetachedHouse'}",8548,Encinar de los Reyes,False,V6115I,,False,True,,True,True,40.5058646,-3.6427008,La Moraleja,,False,41,sale,True,True,1385000.0,4328.0,83260835,chalet,Madrid,4,False,320.0,good,"{'subtitle': 'Encinar de los Reyes, La Moraleja', 'title': 'Chalet pareado'}",https://img3.idealista.com/blur/WEB_LISTING/0/id.pro.es.image.master/2d/d7/ca/642162158.jpg,https://www.idealista.com/inmueble/83260835/
barrio Aravaca,4,es,"{'typology': 'chalet', 'subTypology': 'semidetachedHouse'}",6648,Moncloa,False,PV7174I,,False,True,,True,True,40.4572032,-3.7909058,Madrid,Aravaca,False,41,sale,True,True,920000.0,2244.0,82878698,chalet,Madrid,6,False,410.0,good,"{'subtitle': 'Aravaca, Madrid', 'title': 'Chalet pareado'}",https://img3.idealista.com/blur/WEB_LISTING/0/id.pro.es.image.master/b2/f5/6e/643539853.jpg,https://www.idealista.com/inmueble/82878698/
Camino del Golf,7,es,"{'typology': 'chalet', 'subTypology': 'independantHouse'}",10886,La Moraleja,False,VC10646,,False,True,,True,True,40.5179226,-3.6194974,La Moraleja,,False,58,sale,True,True,3200000.0,4000.0,84592615,chalet,Madrid,7,False,800.0,good,"{'subtitle': 'La Moraleja, La Moraleja', 'title': 'Casa independiente en Camino del Golf'}",https://img3.idealista.com/blur/WEB_LISTING/0/id.pro.es.image.master/5b/5a/4f/642993419.jpg,https://www.idealista.com/inmueble/84592615/
"Calle de Juan Bravo, Madrid",4,es,{'typology': 'flat'},3349,Salamanca,True,es135054,6,True,True,True,True,True,40.4338488,-3.6798429,Madrid,Lista,False,30,sale,True,True,1540000.0,6471.0,84553321,flat,Madrid,5,False,238.0,renew,"{'subtitle': 'Lista, Madrid', 'title': 'Piso en Calle de Juan Bravo, Madrid'}",https://img3.idealista.com/blur/WEB_LISTING/0/id.pro.es.image.master/01/05/c4/641685959.jpg,https://www.idealista.com/inmueble/84553321/
Encinar de los Reyes,5,es,"{'typology': 'chalet', 'subTypology': 'semidetachedHouse'}",8790,Encinar de los Reyes,False,QT135028,,True,True,,True,True,40.505288,-3.6378986,La Moraleja,,False,68,sale,True,True,1785000.0,4103.0,84563513,chalet,Madrid,5,False,435.0,good,"{'subtitle': 'Encinar de los Reyes, La Moraleja', 'title': 'Chalet pareado'}",https://img3.idealista.com/blur/WEB_LISTING/0/id.pro.es.image.master/43/8c/46/642208538.jpg,https://www.idealista.com/inmueble/84563513/
Encinar de los Reyes,5,es,"{'typology': 'chalet', 'subTypology': 'semidetachedHouse'}",8997,Encinar de los Reyes,False,TZ134487,,False,True,,True,True,40.5088323,-3.6390983,La Moraleja,,False,64,sale,True,True,1690000.0,3558.0,84393668,chalet,Madrid,5,False,475.0,good,"{'subtitle': 'Encinar de los Reyes, La Moraleja', 'title': 'Chalet pareado'}",https://img3.idealista.com/blur/WEB_LISTING/0/id.pro.es.image.master/26/28/19/638089434.jpg,https://www.idealista.com/inmueble/84393668/
"Calle López de Hoyos, 138",1,es,{'typology': 'flat'},3461,Chamartín,False,dg133294,2,False,True,True,True,True,40.4448963,-3.6725838,Madrid,Prosperidad,False,43,sale,,,349000.0,4653.0,84368226,flat,Madrid,2,True,75.0,good,"{'subtitle': 'Prosperidad, Madrid', 'title': 'Piso en Calle López de Hoyos, 138'}",https://img3.idealista.com/blur/WEB_LISTING/0/id.pro.es.image.master/34/75/14/638323440.jpg,https://www.idealista.com/inmueble/84368226/
"prado del rey, 4",6,es,"{'typology': 'chalet', 'subTypology': 'independantHouse'}",8288,Zona Prado de Somosaguas - La Finca,False,0678,,True,True,,True,True,40.414607,-3.7986611,Pozuelo de Alarcón,La Finca,False,48,sale,True,True,2900000.0,3625.0,81401246,chalet,Madrid,5,True,800.0,good,"{'subtitle': 'La Finca, Pozuelo de Alarcón', 'title': 'Casa independiente en prado del rey, 4'}",https://img3.idealista.com/blur/WEB_LISTING/0/id.pro.es.image.master/ec/11/77/576681493.jpg,https://www.idealista.com/inmueble/81401246/
"Calle Núñez de Balboa, 11",2,es,{'typology': 'flat'},3986,Salamanca,True,422437,6,False,True,True,True,True,40.4227044,-3.6830602,Madrid,Recoletos,False,69,sale,,,925000.0,9343.0,40147837,flat,Madrid,2,True,99.0,good,"{'subtitle': 'Recoletos, Madrid', 'title': 'Piso en Calle Núñez de Balboa, 11'}",https://img3.idealista.com/blur/WEB_LISTING/0/id.pro.es.image.master/c3/e4/52/586671522.jpg,https://www.idealista.com/inmueble/40147837/
"Calle de Luis Martinez Feduchi, 134",3,es,{'typology': 'flat'},7973,Encinar de los Reyes,True,V6016I,3,False,True,True,True,True,40.5006683,-3.6454795,La Moraleja,,False,41,sale,True,True,795000.0,4297.0,39350830,flat,Madrid,4,True,185.0,good,"{'subtitle': 'Encinar de los Reyes, La Moraleja', 'title': 'Piso en Calle de Luis Martinez Feduchi, 134'}",https://img3.idealista.com/blur/WEB_LISTING/0/id.pro.es.image.master/e4/a2/4f/643411029.jpg,https://www.idealista.com/inmueble/39350830/
"Calle del camino de hoyarrasa, 197",5,es,"{'typology': 'chalet', 'subTypology': 'independantHouse'}",12304,La Moraleja,False,V1381I,,True,True,,True,True,40.5255952,-3.605967,La Moraleja,,False,31,sale,True,True,1795000.0,2992.0,38940033,chalet,Madrid,5,True,600.0,,"{'subtitle': 'La Moraleja, La Moraleja', 'title': 'Casa independiente en Calle del camino de hoyarrasa, 197'}",https://img3.idealista.com/blur/WEB_LISTING/0/id.pro.es.image.master/61/6f/c7/643900675.jpg,https://www.idealista.com/inmueble/38940033/
barrio Valdemarín,4,es,{'typology': 'flat'},6829,Moncloa,True,PV7264I,bj,False,True,True,True,True,40.4660007,-3.7909409,Madrid,Valdemarín,False,41,sale,True,True,890000.0,5933.0,84363279,flat,Madrid,4,False,150.0,good,"{'subtitle': 'Valdemarín, Madrid', 'title': 'Piso'}",https://img3.idealista.com/blur/WEB_LISTING/0/id.pro.es.image.master/c2/57/0c/645382177.jpg,https://www.idealista.com/inmueble/84363279/
barrio La Finca,5,es,"{'typology': 'chalet', 'subTypology': 'semidetachedHouse'}",8441,Zona Prado de Somosaguas - La Finca,False,PV5857I,,False,True,,True,True,40.4162594,-3.8018479,Pozuelo de Alarcón,La Finca,False,40,sale,True,True,2250000.0,3968.0,82838939,chalet,Madrid,4,False,567.0,good,"{'subtitle': 'La Finca, Pozuelo de Alarcón', 'title': 'Chalet pareado'}",https://img3.idealista.com/blur/WEB_LISTING/0/id.pro.es.image.master/f2/50/57/646453238.jpg,https://www.idealista.com/inmueble/82838939/
"Avenida de la Vega, Alcobendas",1,es,{'typology': 'flat'},11957,Arroyo de la Vega,True,AP128177,3,True,True,True,True,True,40.5353772,-3.6259914,La Moraleja,,False,20,sale,True,True,378000.0,5400.0,82498724,flat,Madrid,2,False,70.0,good,"{'subtitle': 'Arroyo de la Vega, La Moraleja', 'title': 'Piso en Avenida de la Vega, Alcobendas'}",https://img3.idealista.com/blur/WEB_LISTING/0/id.pro.es.image.master/95/52/dd/599008541.jpg,https://www.idealista.com/inmueble/82498724/
Calle Dodge,2,es,{'typology': 'flat'},9388,Usera,True,BFU-V742,5,False,True,True,True,True,40.3660608,-3.711397,Madrid,Orcasitas,False,42,sale,True,True,217000.0,1764.0,84034109,flat,Madrid,2,False,123.0,good,"{'subtitle': 'Orcasitas, Madrid', 'title': 'Piso en Calle Dodge'}",https://img3.idealista.com/blur/WEB_LISTING/0/id.pro.es.image.master/60/61/3f/630411158.jpg,https://www.idealista.com/inmueble/84034109/
barrio Chueca-Justicia,1,es,{'typology': 'flat'},3301,Centro,True,VP-0872,2,False,True,False,True,True,40.4235319,-3.696493,Madrid,Chueca-Justicia,False,39,sale,,,490000.0,7424.0,83587722,flat,Madrid,1,False,66.0,good,"{'subtitle': 'Chueca-Justicia, Madrid', 'title': 'Piso'}",https://img3.idealista.com/blur/WEB_LISTING/0/id.pro.es.image.master/20/d0/7f/621031540.jpg,https://www.idealista.com/inmueble/83587722/
Calle de Diego de León,4,es,"{'typology': 'flat', 'subTypology': 'penthouse'}",3001,Salamanca,True,DS-P22120,8,True,True,True,True,True,40.4368776,-3.6822011,Madrid,Castellana,False,57,sale,,,1650000.0,7021.0,83637945,penthouse,Madrid,5,False,235.0,renew,"{'subtitle': 'Castellana, Madrid', 'title': 'Ático en Calle de Diego de León'}",https://img3.idealista.com/blur/WEB_LISTING/0/id.pro.es.image.master/1e/37/ea/641418021.jpg,https://www.idealista.com/inmueble/83637945/
Calle del Alto,8,es,"{'typology': 'chalet', 'subTypology': 'independantHouse'}",10355,Encinar de los Reyes,False,VC19942,,True,True,,True,True,40.5089059,-3.6174592,La Moraleja,,False,53,sale,True,True,4100000.0,4858.0,83453714,chalet,Madrid,9,False,844.0,good,"{'subtitle': 'Encinar de los Reyes, La Moraleja', 'title': 'Casa independiente en Calle del Alto'}",https://img3.idealista.com/blur/WEB_LISTING/0/id.pro.es.image.master/4f/51/2f/618308786.jpg,https://www.idealista.com/inmueble/83453714/
Camino MESONCILLOS,4,es,"{'typology': 'chalet', 'subTypology': 'independantHouse'}",11871,La Moraleja,False,VC19406,,False,True,,True,True,40.5221568,-3.6087652,La Moraleja,,False,58,sale,True,True,4200000.0,4217.0,38391652,chalet,Madrid,5,False,996.0,good,"{'subtitle': 'La Moraleja, La Moraleja', 'title': 'Casa independiente en Camino MESONCILLOS'}",https://img3.idealista.com/blur/WEB_LISTING/0/id.pro.es.image.master/b1/4e/64/235832035.jpg,https://www.idealista.com/inmueble/38391652/
Encinar de los Reyes,4,es,"{'typology': 'chalet', 'subTypology': 'semidetachedHouse'}",8676,Encinar de los Reyes,False,V6172I,,False,True,,True,True,40.504718,-3.6390609,La Moraleja,,False,41,sale,True,True,1150000.0,4792.0,83879740,chalet,Madrid,4,False,240.0,good,"{'subtitle': 'Encinar de los Reyes, La Moraleja', 'title': 'Chalet pareado'}",https://img3.idealista.com/blur/WEB_LISTING/0/id.pro.es.image.master/6c/c1/13/640033529.jpg,https://www.idealista.com/inmueble/83879740/
Encinar de los Reyes,5,es,"{'typology': 'chalet', 'subTypology': 'semidetachedHouse'}",8548,Encinar de los Reyes,False,V6115I,,False,True,,True,True,40.5058646,-3.6427008,La Moraleja,,False,41,sale,True,True,1385000.0,4328.0,83260835,chalet,Madrid,4,False,320.0,good,"{'subtitle': 'Encinar de los Reyes, La Moraleja', 'title': 'Chalet pareado'}",https://img3.idealista.com/blur/WEB_LISTING/0/id.pro.es.image.master/2d/d7/ca/642162158.jpg,https://www.idealista.com/inmueble/83260835/
barrio Aravaca,4,es,"{'typology': 'chalet', 'subTypology': 'semidetachedHouse'}",6648,Moncloa,False,PV7174I,,False,True,,True,True,40.4572032,-3.7909058,Madrid,Aravaca,False,41,sale,True,True,920000.0,2244.0,82878698,chalet,Madrid,6,False,410.0,good,"{'subtitle': 'Aravaca, Madrid', 'title': 'Chalet pareado'}",https://img3.idealista.com/blur/WEB_LISTING/0/id.pro.es.image.master/b2/f5/6e/643539853.jpg,https://www.idealista.com/inmueble/82878698/
Camino del Golf,7,es,"{'typology': 'chalet', 'subTypology': 'independantHouse'}",10886,La Moraleja,False,VC10646,,False,True,,True,True,40.5179226,-3.6194974,La Moraleja,,False,58,sale,True,True,3200000.0,4000.0,84592615,chalet,Madrid,7,False,800.0,good,"{'subtitle': 'La Moraleja, La Moraleja', 'title': 'Casa independiente en Camino del Golf'}",https://img3.idealista.com/blur/WEB_LISTING/0/id.pro.es.image.master/5b/5a/4f/642993419.jpg,https://www.idealista.com/inmueble/84592615/
"Calle de Juan Bravo, Madrid",4,es,{'typology': 'flat'},3349,Salamanca,True,es135054,6,True,True,True,True,True,40.4338488,-3.6798429,Madrid,Lista,False,30,sale,True,True,1540000.0,6471.0,84553321,flat,Madrid,5,False,238.0,renew,"{'subtitle': 'Lista, Madrid', 'title': 'Piso en Calle de Juan Bravo, Madrid'}",https://img3.idealista.com/blur/WEB_LISTING/0/id.pro.es.image.master/01/05/c4/641685959.jpg,https://www.idealista.com/inmueble/84553321/
Encinar de los Reyes,5,es,"{'typology': 'chalet', 'subTypology': 'semidetachedHouse'}",8790,Encinar de los Reyes,False,QT135028,,True,True,,True,True,40.505288,-3.6378986,La Moraleja,,False,68,sale,True,True,1785000.0,4103.0,84563513,chalet,Madrid,5,False,435.0,good,"{'subtitle': 'Encinar de los Reyes, La Moraleja', 'title': 'Chalet pareado'}",https://img3.idealista.com/blur/WEB_LISTING/0/id.pro.es.image.master/43/8c/46/642208538.jpg,https://www.idealista.com/inmueble/84563513/
Encinar de los Reyes,5,es,"{'typology': 'chalet', 'subTypology': 'semidetachedHouse'}",8997,Encinar de los Reyes,False,TZ134487,,False,True,,True,True,40.5088323,-3.6390983,La Moraleja,,False,64,sale,True,True,1690000.0,3558.0,84393668,chalet,Madrid,5,False,475.0,good,"{'subtitle': 'Encinar de los Reyes, La Moraleja', 'title': 'Chalet pareado'}",https://img3.idealista.com/blur/WEB_LISTING/0/id.pro.es.image.master/26/28/19/638089434.jpg,https://www.idealista.com/inmueble/84393668/
"Calle López de Hoyos, 138",1,es,{'typology': 'flat'},3461,Chamartín,False,dg133294,2,False,True,True,True,True,40.4448963,-3.6725838,Madrid,Prosperidad,False,43,sale,,,349000.0,4653.0,84368226,flat,Madrid,2,True,75.0,good,"{'subtitle': 'Prosperidad, Madrid', 'title': 'Piso en Calle López de Hoyos, 138'}",https://img3.idealista.com/blur/WEB_LISTING/0/id.pro.es.image.master/34/75/14/638323440.jpg,https://www.idealista.com/inmueble/84368226/
"prado del rey, 4",6,es,"{'typology': 'chalet', 'subTypology': 'independantHouse'}",8288,Zona Prado de Somosaguas - La Finca,False,0678,,True,True,,True,True,40.414607,-3.7986611,Pozuelo de Alarcón,La Finca,False,48,sale,True,True,2900000.0,3625.0,81401246,chalet,Madrid,5,True,800.0,good,"{'subtitle': 'La Finca, Pozuelo de Alarcón', 'title': 'Casa independiente en prado del rey, 4'}",https://img3.idealista.com/blur/WEB_LISTING/0/id.pro.es.image.master/ec/11/77/576681493.jpg,https://www.idealista.com/inmueble/81401246/
"Calle Núñez de Balboa, 11",2,es,{'typology': 'flat'},3986,Salamanca,True,422437,6,False,True,True,True,True,40.4227044,-3.6830602,Madrid,Recoletos,False,69,sale,,,925000.0,9343.0,40147837,flat,Madrid,2,True,99.0,good,"{'subtitle': 'Recoletos, Madrid', 'title': 'Piso en Calle Núñez de Balboa, 11'}",https://img3.idealista.com/blur/WEB_LISTING/0/id.pro.es.image.master/c3/e4/52/586671522.jpg,https://www.idealista.com/inmueble/40147837/
"Calle de Luis Martinez Feduchi, 134",3,es,{'typology': 'flat'},7973,Encinar de los Reyes,True,V6016I,3,False,True,True,True,True,40.5006683,-3.6454795,La Moraleja,,False,41,sale,True,True,795000.0,4297.0,39350830,flat,Madrid,4,True,185.0,good,"{'subtitle': 'Encinar de los Reyes, La Moraleja', 'title': 'Piso en Calle de Luis Martinez Feduchi, 134'}",https://img3.idealista.com/blur/WEB_LISTING/0/id.pro.es.image.master/e4/a2/4f/643411029.jpg,https://www.idealista.com/inmueble/39350830/
"Calle del camino de hoyarrasa, 197",5,es,"{'typology': 'chalet', 'subTypology': 'independantHouse'}",12304,La Moraleja,False,V1381I,,True,True,,True,True,40.5255952,-3.605967,La Moraleja,,False,31,sale,True,True,1795000.0,2992.0,38940033,chalet,Madrid,5,True,600.0,,"{'subtitle': 'La Moraleja, La Moraleja', 'title': 'Casa independiente en Calle del camino de hoyarrasa, 197'}",https://img3.idealista.com/blur/WEB_LISTING/0/id.pro.es.image.master/61/6f/c7/643900675.jpg,https://www.idealista.com/inmueble/38940033/
barrio Valdemarín,4,es,{'typology': 'flat'},6829,Moncloa,True,PV7264I,bj,False,True,True,True,True,40.4660007,-3.7909409,Madrid,Valdemarín,False,41,sale,True,True,890000.0,5933.0,84363279,flat,Madrid,4,False,150.0,good,"{'subtitle': 'Valdemarín, Madrid', 'title': 'Piso'}",https://img3.idealista.com/blur/WEB_LISTING/0/id.pro.es.image.master/c2/57/0c/645382177.jpg,https://www.idealista.com/inmueble/84363279/
barrio La Finca,5,es,"{'typology': 'chalet', 'subTypology': 'semidetachedHouse'}",8441,Zona Prado de Somosaguas - La Finca,False,PV5857I,,False,True,,True,True,40.4162594,-3.8018479,Pozuelo de Alarcón,La Finca,False,40,sale,True,True,2250000.0,3968.0,82838939,chalet,Madrid,4,False,567.0,good,"{'subtitle': 'La Finca, Pozuelo de Alarcón', 'title': 'Chalet pareado'}",https://img3.idealista.com/blur/WEB_LISTING/0/id.pro.es.image.master/f2/50/57/646453238.jpg,https://www.idealista.com/inmueble/82838939/
"Avenida de la Vega, Alcobendas",1,es,{'typology': 'flat'},11957,Arroyo de la Vega,True,AP128177,3,True,True,True,True,True,40.5353772,-3.6259914,La Moraleja,,False,20,sale,True,True,378000.0,5400.0,82498724,flat,Madrid,2,False,70.0,good,"{'subtitle': 'Arroyo de la Vega, La Moraleja', 'title': 'Piso en Avenida de la Vega, Alcobendas'}",https://img3.idealista.com/blur/WEB_LISTING/0/id.pro.es.image.master/95/52/dd/599008541.jpg,https://www.idealista.com/inmueble/82498724/
Calle Dodge,2,es,{'typology': 'flat'},9388,Usera,True,BFU-V742,5,False,True,True,True,True,40.3660608,-3.711397,Madrid,Orcasitas,False,42,sale,True,True,217000.0,1764.0,84034109,flat,Madrid,2,False,123.0,good,"{'subtitle': 'Orcasitas, Madrid', 'title': 'Piso en Calle Dodge'}",https://img3.idealista.com/blur/WEB_LISTING/0/id.pro.es.image.master/60/61/3f/630411158.jpg,https://www.idealista.com/inmueble/84034109/
barrio Chueca-Justicia,1,es,{'typology': 'flat'},3301,Centro,True,VP-0872,2,False,True,False,True,True,40.4235319,-3.696493,Madrid,Chueca-Justicia,False,39,sale,,,490000.0,7424.0,83587722,flat,Madrid,1,False,66.0,good,"{'subtitle': 'Chueca-Justicia, Madrid', 'title': 'Piso'}",https://img3.idealista.com/blur/WEB_LISTING/0/id.pro.es.image.master/20/d0/7f/621031540.jpg,https://www.idealista.com/inmueble/83587722/
Calle de Diego de León,4,es,"{'typology': 'flat', 'subTypology': 'penthouse'}",3001,Salamanca,True,DS-P22120,8,True,True,True,True,True,40.4368776,-3.6822011,Madrid,Castellana,False,57,sale,,,1650000.0,7021.0,83637945,penthouse,Madrid,5,False,235.0,renew,"{'subtitle': 'Castellana, Madrid', 'title': 'Ático en Calle de Diego de León'}",https://img3.idealista.com/blur/WEB_LISTING/0/id.pro.es.image.master/1e/37/ea/641418021.jpg,https://www.idealista.com/inmueble/83637945/
Calle del Alto,8,es,"{'typology': 'chalet', 'subTypology': 'independantHouse'}",10355,Encinar de los Reyes,False,VC19942,,True,True,,True,True,40.5089059,-3.6174592,La Moraleja,,False,53,sale,True,True,4100000.0,4858.0,83453714,chalet,Madrid,9,False,844.0,good,"{'subtitle': 'Encinar de los Reyes, La Moraleja', 'title': 'Casa independiente en Calle del Alto'}",https://img3.idealista.com/blur/WEB_LISTING/0/id.pro.es.image.master/4f/51/2f/618308786.jpg,https://www.idealista.com/inmueble/83453714/
Camino MESONCILLOS,4,es,"{'typology': 'chalet', 'subTypology': 'independantHouse'}",11871,La Moraleja,False,VC19406,,False,True,,True,True,40.5221568,-3.6087652,La Moraleja,,False,58,sale,True,True,4200000.0,4217.0,38391652,chalet,Madrid,5,False,996.0,good,"{'subtitle': 'La Moraleja, La Moraleja', 'title': 'Casa independiente en Camino MESONCILLOS'}",https://img3.idealista.com/blur/WEB_LISTING/0/id.pro.es.image.master/b1/4e/64/235832035.jpg,https://www.idealista.com/inmueble/38391652/
Encinar de los Reyes,4,es,"{'typology': 'chalet', 'subTypology': 'semidetachedHouse'}",8676,Encinar de los Reyes,False,V6172I,,False,True,,True,True,40.504718,-3.6390609,La Moraleja,,False,41,sale,True,True,1150000.0,4792.0,83879740,chalet,Madrid,4,False,240.0,good,"{'subtitle': 'Encinar de los Reyes, La Moraleja', 'title': 'Chalet pareado'}",https://img3.idealista.com/blur/WEB_LISTING/0/id.pro.es.image.master/6c/c1/13/640033529.jpg,https://www.idealista.com/inmueble/83879740/
Encinar de los Reyes,5,es,"{'typology': 'chalet', 'subTypology': 'semidetachedHouse'}",8548,Encinar de los Reyes,False,V6115I,,False,True,,True,True,40.5058646,-3.6427008,La Moraleja,,False,41,sale,True,True,1385000.0,4328.0,83260835,chalet,Madrid,4,False,320.0,good,"{'subtitle': 'Encinar de los Reyes, La Moraleja', 'title': 'Chalet pareado'}",https://img3.idealista.com/blur/WEB_LISTING/0/id.pro.es.image.master/2d/d7/ca/642162158.jpg,https://www.idealista.com/inmueble/83260835/
barrio Aravaca,4,es,"{'typology': 'chalet', 'subTypology': 'semidetachedHouse'}",6648,Moncloa,False,PV7174I,,False,True,,True,True,40.4572032,-3.7909058,Madrid,Aravaca,False,41,sale,True,True,920000.0,2244.0,82878698,chalet,Madrid,6,False,410.0,good,"{'subtitle': 'Aravaca, Madrid', 'title': 'Chalet pareado'}",https://img3.idealista.com/blur/WEB_LISTING/0/id.pro.es.image.master/b2/f5/6e/643539853.jpg,https://www.idealista.com/inmueble/82878698/
Camino del Golf,7,es,"{'typology': 'chalet', 'subTypology': 'independantHouse'}",10886,La Moraleja,False,VC10646,,False,True,,True,True,40.5179226,-3.6194974,La Moraleja,,False,58,sale,True,True,3200000.0,4000.0,84592615,chalet,Madrid,7,False,800.0,good,"{'subtitle': 'La Moraleja, La Moraleja', 'title': 'Casa independiente en Camino del Golf'}",https://img3.idealista.com/blur/WEB_LISTING/0/id.pro.es.image.master/5b/5a/4f/642993419.jpg,https://www.idealista.com/inmueble/84592615/
"Calle de Juan Bravo, Madrid",4,es,{'typology': 'flat'},3349,Salamanca,True,es135054,6,True,True,True,True,True,40.4338488,-3.6798429,Madrid,Lista,False,30,sale,True,True,1540000.0,6471.0,84553321,flat,Madrid,5,False,238.0,renew,"{'subtitle': 'Lista, Madrid', 'title': 'Piso en Calle de Juan Bravo, Madrid'}",https://img3.idealista.com/blur/WEB_LISTING/0/id.pro.es.image.master/01/05/c4/641685959.jpg,https://www.idealista.com/inmueble/84553321/
Encinar de los Reyes,5,es,"{'typology': 'chalet', 'subTypology': 'semidetachedHouse'}",8790,Encinar de los Reyes,False,QT135028,,True,True,,True,True,40.505288,-3.6378986,La Moraleja,,False,68,sale,True,True,1785000.0,4103.0,84563513,chalet,Madrid,5,False,435.0,good,"{'subtitle': 'Encinar de los Reyes, La Moraleja', 'title': 'Chalet pareado'}",https://img3.idealista.com/blur/WEB_LISTING/0/id.pro.es.image.master/43/8c/46/642208538.jpg,https://www.idealista.com/inmueble/84563513/
Encinar de los Reyes,5,es,"{'typology': 'chalet', 'subTypology': 'semidetachedHouse'}",8997,Encinar de los Reyes,False,TZ134487,,False,True,,True,True,40.5088323,-3.6390983,La Moraleja,,False,64,sale,True,True,1690000.0,3558.0,84393668,chalet,Madrid,5,False,475.0,good,"{'subtitle': 'Encinar de los Reyes, La Moraleja', 'title': 'Chalet pareado'}",https://img3.idealista.com/blur/WEB_LISTING/0/id.pro.es.image.master/26/28/19/638089434.jpg,https://www.idealista.com/inmueble/84393668/
"Calle López de Hoyos, 138",1,es,{'typology': 'flat'},3461,Chamartín,False,dg133294,2,False,True,True,True,True,40.4448963,-3.6725838,Madrid,Prosperidad,False,43,sale,,,349000.0,4653.0,84368226,flat,Madrid,2,True,75.0,good,"{'subtitle': 'Prosperidad, Madrid', 'title': 'Piso en Calle López de Hoyos, 138'}",https://img3.idealista.com/blur/WEB_LISTING/0/id.pro.es.image.master/34/75/14/638323440.jpg,https://www.idealista.com/inmueble/84368226/
"prado del rey, 4",6,es,"{'typology': 'chalet', 'subTypology': 'independantHouse'}",8288,Zona Prado de Somosaguas - La Finca,False,0678,,True,True,,True,True,40.414607,-3.7986611,Pozuelo de Alarcón,La Finca,False,48,sale,True,True,2900000.0,3625.0,81401246,chalet,Madrid,5,True,800.0,good,"{'subtitle': 'La Finca, Pozuelo de Alarcón', 'title': 'Casa independiente en prado del rey, 4'}",https://img3.idealista.com/blur/WEB_LISTING/0/id.pro.es.image.master/ec/11/77/576681493.jpg,https://www.idealista.com/inmueble/81401246/
"Calle Núñez de Balboa, 11",2,es,{'typology': 'flat'},3986,Salamanca,True,422437,6,False,True,True,True,True,40.4227044,-3.6830602,Madrid,Recoletos,False,69,sale,,,925000.0,9343.0,40147837,flat,Madrid,2,True,99.0,good,"{'subtitle': 'Recoletos, Madrid', 'title': 'Piso en Calle Núñez de Balboa, 11'}",https://img3.idealista.com/blur/WEB_LISTING/0/id.pro.es.image.master/c3/e4/52/586671522.jpg,https://www.idealista.com/inmueble/40147837/
"Calle de Luis Martinez Feduchi, 134",3,es,{'typology': 'flat'},7973,Encinar de los Reyes,True,V6016I,3,False,True,True,True,True,40.5006683,-3.6454795,La Moraleja,,False,41,sale,True,True,795000.0,4297.0,39350830,flat,Madrid,4,True,185.0,good,"{'subtitle': 'Encinar de los Reyes, La Moraleja', 'title': 'Piso en Calle de Luis Martinez Feduchi, 134'}",https://img3.idealista.com/blur/WEB_LISTING/0/id.pro.es.image.master/e4/a2/4f/643411029.jpg,https://www.idealista.com/inmueble/39350830/
"Calle del camino de hoyarrasa, 197",5,es,"{'typology': 'chalet', 'subTypology': 'independantHouse'}",12304,La Moraleja,False,V1381I,,True,True,,True,True,40.5255952,-3.605967,La Moraleja,,False,31,sale,True,True,1795000.0,2992.0,38940033,chalet,Madrid,5,True,600.0,,"{'subtitle': 'La Moraleja, La Moraleja', 'title': 'Casa independiente en Calle del camino de hoyarrasa, 197'}",https://img3.idealista.com/blur/WEB_LISTING/0/id.pro.es.image.master/61/6f/c7/643900675.jpg,https://www.idealista.com/inmueble/38940033/
barrio Valdemarín,4,es,{'typology': 'flat'},6829,Moncloa,True,PV7264I,bj,False,True,True,True,True,40.4660007,-3.7909409,Madrid,Valdemarín,False,41,sale,True,True,890000.0,5933.0,84363279,flat,Madrid,4,False,150.0,good,"{'subtitle': 'Valdemarín, Madrid', 'title': 'Piso'}",https://img3.idealista.com/blur/WEB_LISTING/0/id.pro.es.image.master/c2/57/0c/645382177.jpg,https://www.idealista.com/inmueble/84363279/
barrio La Finca,5,es,"{'typology': 'chalet', 'subTypology': 'semidetachedHouse'}",8441,Zona Prado de Somosaguas - La Finca,False,PV5857I,,False,True,,True,True,40.4162594,-3.8018479,Pozuelo de Alarcón,La Finca,False,40,sale,True,True,2250000.0,3968.0,82838939,chalet,Madrid,4,False,567.0,good,"{'subtitle': 'La Finca, Pozuelo de Alarcón', 'title': 'Chalet pareado'}",https://img3.idealista.com/blur/WEB_LISTING/0/id.pro.es.image.master/f2/50/57/646453238.jpg,https://www.idealista.com/inmueble/82838939/
"Avenida de la Vega, Alcobendas",1,es,{'typology': 'flat'},11957,Arroyo de la Vega,True,AP128177,3,True,True,True,True,True,40.5353772,-3.6259914,La Moraleja,,False,20,sale,True,True,378000.0,5400.0,82498724,flat,Madrid,2,False,70.0,good,"{'subtitle': 'Arroyo de la Vega, La Moraleja', 'title': 'Piso en Avenida de la Vega, Alcobendas'}",https://img3.idealista.com/blur/WEB_LISTING/0/id.pro.es.image.master/95/52/dd/599008541.jpg,https://www.idealista.com/inmueble/82498724/
Calle Dodge,2,es,{'typology': 'flat'},9388,Usera,True,BFU-V742,5,False,True,True,True,True,40.3660608,-3.711397,Madrid,Orcasitas,False,42,sale,True,True,217000.0,1764.0,84034109,flat,Madrid,2,False,123.0,good,"{'subtitle': 'Orcasitas, Madrid', 'title': 'Piso en Calle Dodge'}",https://img3.idealista.com/blur/WEB_LISTING/0/id.pro.es.image.master/60/61/3f/630411158.jpg,https://www.idealista.com/inmueble/84034109/
barrio Chueca-Justicia,1,es,{'typology': 'flat'},3301,Centro,True,VP-0872,2,False,True,False,True,True,40.4235319,-3.696493,Madrid,Chueca-Justicia,False,39,sale,,,490000.0,7424.0,83587722,flat,Madrid,1,False,66.0,good,"{'subtitle': 'Chueca-Justicia, Madrid', 'title': 'Piso'}",https://img3.idealista.com/blur/WEB_LISTING/0/id.pro.es.image.master/20/d0/7f/621031540.jpg,https://www.idealista.com/inmueble/83587722/
Calle de Diego de León,4,es,"{'typology': 'flat', 'subTypology': 'penthouse'}",3001,Salamanca,True,DS-P22120,8,True,True,True,True,True,40.4368776,-3.6822011,Madrid,Castellana,False,57,sale,,,1650000.0,7021.0,83637945,penthouse,Madrid,5,False,235.0,renew,"{'subtitle': 'Castellana, Madrid', 'title': 'Ático en Calle de Diego de León'}",https://img3.idealista.com/blur/WEB_LISTING/0/id.pro.es.image.master/1e/37/ea/641418021.jpg,https://www.idealista.com/inmueble/83637945/
Calle del Alto,8,es,"{'typology': 'chalet', 'subTypology': 'independantHouse'}",10355,Encinar de los Reyes,False,VC19942,,True,True,,True,True,40.5089059,-3.6174592,La Moraleja,,False,53,sale,True,True,4100000.0,4858.0,83453714,chalet,Madrid,9,False,844.0,good,"{'subtitle': 'Encinar de los Reyes, La Moraleja', 'title': 'Casa independiente en Calle del Alto'}",https://img3.idealista.com/blur/WEB_LISTING/0/id.pro.es.image.master/4f/51/2f/618308786.jpg,https://www.idealista.com/inmueble/83453714/
Camino MESONCILLOS,4,es,"{'typology': 'chalet', 'subTypology': 'independantHouse'}",11871,La Moraleja,False,VC19406,,False,True,,True,True,40.5221568,-3.6087652,La Moraleja,,False,58,sale,True,True,4200000.0,4217.0,38391652,chalet,Madrid,5,False,996.0,good,"{'subtitle': 'La Moraleja, La Moraleja', 'title': 'Casa independiente en Camino MESONCILLOS'}",https://img3.idealista.com/blur/WEB_LISTING/0/id.pro.es.image.master/b1/4e/64/235832035.jpg,https://www.idealista.com/inmueble/38391652/
Encinar de los Reyes,4,es,"{'typology': 'chalet', 'subTypology': 'semidetachedHouse'}",8676,Encinar de los Reyes,False,V6172I,,False,True,,True,True,40.504718,-3.6390609,La Moraleja,,False,41,sale,True,True,1150000.0,4792.0,83879740,chalet,Madrid,4,False,240.0,good,"{'subtitle': 'Encinar de los Reyes, La Moraleja', 'title': 'Chalet pareado'}",https://img3.idealista.com/blur/WEB_LISTING/0/id.pro.es.image.master/6c/c1/13/640033529.jpg,https://www.idealista.com/inmueble/83879740/
Encinar de los Reyes,5,es,"{'typology': 'chalet', 'subTypology': 'semidetachedHouse'}",8548,Encinar de los Reyes,False,V6115I,,False,True,,True,True,40.5058646,-3.6427008,La Moraleja,,False,41,sale,True,True,1385000.0,4328.0,83260835,chalet,Madrid,4,False,320.0,good,"{'subtitle': 'Encinar de los Reyes, La Moraleja', 'title': 'Chalet pareado'}",https://img3.idealista.com/blur/WEB_LISTING/0/id.pro.es.image.master/2d/d7/ca/642162158.jpg,https://www.idealista.com/inmueble/83260835/
barrio Aravaca,4,es,"{'typology': 'chalet', 'subTypology': 'semidetachedHouse'}",6648,Moncloa,False,PV7174I,,False,True,,True,True,40.4572032,-3.7909058,Madrid,Aravaca,False,41,sale,True,True,920000.0,2244.0,82878698,chalet,Madrid,6,False,410.0,good,"{'subtitle': 'Aravaca, Madrid', 'title': 'Chalet pareado'}",https://img3.idealista.com/blur/WEB_LISTING/0/id.pro.es.image.master/b2/f5/6e/643539853.jpg,https://www.idealista.com/inmueble/82878698/
Camino del Golf,7,es,"{'typology': 'chalet', 'subTypology': 'independantHouse'}",10886,La Moraleja,False,VC10646,,False,True,,True,True,40.5179226,-3.6194974,La Moraleja,,False,58,sale,True,True,3200000.0,4000.0,84592615,chalet,Madrid,7,False,800.0,good,"{'subtitle': 'La Moraleja, La Moraleja', 'title': 'Casa independiente en Camino del Golf'}",https://img3.idealista.com/blur/WEB_LISTING/0/id.pro.es.image.master/5b/5a/4f/642993419.jpg,https://www.idealista.com/inmueble/84592615/
"Calle de Juan Bravo, Madrid",4,es,{'typology': 'flat'},3349,Salamanca,True,es135054,6,True,True,True,True,True,40.4338488,-3.6798429,Madrid,Lista,False,30,sale,True,True,1540000.0,6471.0,84553321,flat,Madrid,5,False,238.0,renew,"{'subtitle': 'Lista, Madrid', 'title': 'Piso en Calle de Juan Bravo, Madrid'}",https://img3.idealista.com/blur/WEB_LISTING/0/id.pro.es.image.master/01/05/c4/641685959.jpg,https://www.idealista.com/inmueble/84553321/
Encinar de los Reyes,5,es,"{'typology': 'chalet', 'subTypology': 'semidetachedHouse'}",8790,Encinar de los Reyes,False,QT135028,,True,True,,True,True,40.505288,-3.6378986,La Moraleja,,False,68,sale,True,True,1785000.0,4103.0,84563513,chalet,Madrid,5,False,435.0,good,"{'subtitle': 'Encinar de los Reyes, La Moraleja', 'title': 'Chalet pareado'}",https://img3.idealista.com/blur/WEB_LISTING/0/id.pro.es.image.master/43/8c/46/642208538.jpg,https://www.idealista.com/inmueble/84563513/
Encinar de los Reyes,5,es,"{'typology': 'chalet', 'subTypology': 'semidetachedHouse'}",8997,Encinar de los Reyes,False,TZ134487,,False,True,,True,True,40.5088323,-3.6390983,La Moraleja,,False,64,sale,True,True,1690000.0,3558.0,84393668,chalet,Madrid,5,False,475.0,good,"{'subtitle': 'Encinar de los Reyes, La Moraleja', 'title': 'Chalet pareado'}",https://img3.idealista.com/blur/WEB_LISTING/0/id.pro.es.image.master/26/28/19/638089434.jpg,https://www.idealista.com/inmueble/84393668/
"Calle López de Hoyos, 138",1,es,{'typology': 'flat'},3461,Chamartín,False,dg133294,2,False,True,True,True,True,40.4448963,-3.6725838,Madrid,Prosperidad,False,43,sale,,,349000.0,4653.0,84368226,flat,Madrid,2,True,75.0,good,"{'subtitle': 'Prosperidad, Madrid', 'title': 'Piso en Calle López de Hoyos, 138'}",https://img3.idealista.com/blur/WEB_LISTING/0/id.pro.es.image.master/34/75/14/638323440.jpg,https://www.idealista.com/inmueble/84368226/
"prado del rey, 4",6,es,"{'typology': 'chalet', 'subTypology': 'independantHouse'}",8288,Zona Prado de Somosaguas - La Finca,False,0678,,True,True,,True,True,40.414607,-3.7986611,Pozuelo de Alarcón,La Finca,False,48,sale,True,True,2900000.0,3625.0,81401246,chalet,Madrid,5,True,800.0,good,"{'subtitle': 'La Finca, Pozuelo de Alarcón', 'title': 'Casa independiente en prado del rey, 4'}",https://img3.idealista.com/blur/WEB_LISTING/0/id.pro.es.image.master/ec/11/77/576681493.jpg,https://www.idealista.com/inmueble/81401246/
"Calle Núñez de Balboa, 11",2,es,{'typology': 'flat'},3986,Salamanca,True,422437,6,False,True,True,True,True,40.4227044,-3.6830602,Madrid,Recoletos,False,69,sale,,,925000.0,9343.0,40147837,flat,Madrid,2,True,99.0,good,"{'subtitle': 'Recoletos, Madrid', 'title': 'Piso en Calle Núñez de Balboa, 11'}",https://img3.idealista.com/blur/WEB_LISTING/0/id.pro.es.image.master/c3/e4/52/586671522.jpg,https://www.idealista.com/inmueble/40147837/
"Calle de Luis Martinez Feduchi, 134",3,es,{'typology': 'flat'},7973,Encinar de los Reyes,True,V6016I,3,False,True,True,True,True,40.5006683,-3.6454795,La Moraleja,,False,41,sale,True,True,795000.0,4297.0,39350830,flat,Madrid,4,True,185.0,good,"{'subtitle': 'Encinar de los Reyes, La Moraleja', 'title': 'Piso en Calle de Luis Martinez Feduchi, 134'}",https://img3.idealista.com/blur/WEB_LISTING/0/id.pro.es.image.master/e4/a2/4f/643411029.jpg,https://www.idealista.com/inmueble/39350830/
"Calle del camino de hoyarrasa, 197",5,es,"{'typology': 'chalet', 'subTypology': 'independantHouse'}",12304,La Moraleja,False,V1381I,,True,True,,True,True,40.5255952,-3.605967,La Moraleja,,False,31,sale,True,True,1795000.0,2992.0,38940033,chalet,Madrid,5,True,600.0,,"{'subtitle': 'La Moraleja, La Moraleja', 'title': 'Casa independiente en Calle del camino de hoyarrasa, 197'}",https://img3.idealista.com/blur/WEB_LISTING/0/id.pro.es.image.master/61/6f/c7/643900675.jpg,https://www.idealista.com/inmueble/38940033/
barrio Valdemarín,4,es,{'typology': 'flat'},6829,Moncloa,True,PV7264I,bj,False,True,True,True,True,40.4660007,-3.7909409,Madrid,Valdemarín,False,41,sale,True,True,890000.0,5933.0,84363279,flat,Madrid,4,False,150.0,good,"{'subtitle': 'Valdemarín, Madrid', 'title': 'Piso'}",https://img3.idealista.com/blur/WEB_LISTING/0/id.pro.es.image.master/c2/57/0c/645382177.jpg,https://www.idealista.com/inmueble/84363279/
barrio La Finca,5,es,"{'typology': 'chalet', 'subTypology': 'semidetachedHouse'}",8441,Zona Prado de Somosaguas - La Finca,False,PV5857I,,False,True,,True,True,40.4162594,-3.8018479,Pozuelo de Alarcón,La Finca,False,40,sale,True,True,2250000.0,3968.0,82838939,chalet,Madrid,4,False,567.0,good,"{'subtitle': 'La Finca, Pozuelo de Alarcón', 'title': 'Chalet pareado'}",https://img3.idealista.com/blur/WEB_LISTING/0/id.pro.es.image.master/f2/50/57/646453238.jpg,https://www.idealista.com/inmueble/82838939/
"Avenida de la Vega, Alcobendas",1,es,{'typology': 'flat'},11957,Arroyo de la Vega,True,AP128177,3,True,True,True,True,True,40.5353772,-3.6259914,La Moraleja,,False,20,sale,True,True,378000.0,5400.0,82498724,flat,Madrid,2,False,70.0,good,"{'subtitle': 'Arroyo de la Vega, La Moraleja', 'title': 'Piso en Avenida de la Vega, Alcobendas'}",https://img3.idealista.com/blur/WEB_LISTING/0/id.pro.es.image.master/95/52/dd/599008541.jpg,https://www.idealista.com/inmueble/82498724/
Calle Dodge,2,es,{'typology': 'flat'},9388,Usera,True,BFU-V742,5,False,True,True,True,True,40.3660608,-3.711397,Madrid,Orcasitas,False,42,sale,True,True,217000.0,1764.0,84034109,flat,Madrid,2,False,123.0,good,"{'subtitle': 'Orcasitas, Madrid', 'title': 'Piso en Calle Dodge'}",https://img3.idealista.com/blur/WEB_LISTING/0/id.pro.es.image.master/60/61/3f/630411158.jpg,https://www.idealista.com/inmueble/84034109/
barrio Chueca-Justicia,1,es,{'typology': 'flat'},3301,Centro,True,VP-0872,2,False,True,False,True,True,40.4235319,-3.696493,Madrid,Chueca-Justicia,False,39,sale,,,490000.0,7424.0,83587722,flat,Madrid,1,False,66.0,good,"{'subtitle': 'Chueca-Justicia, Madrid', 'title': 'Piso'}",https://img3.idealista.com/blur/WEB_LISTING/0/id.pro.es.image.master/20/d0/7f/621031540.jpg,https://www.idealista.com/inmueble/83587722/
Calle de Diego de León,4,es,"{'typology': 'flat', 'subTypology': 'penthouse'}",3001,Salamanca,True,DS-P22120,8,True,True,True,True,True,40.4368776,-3.6822011,Madrid,Castellana,False,57,sale,,,1650000.0,7021.0,83637945,penthouse,Madrid,5,False,235.0,renew,"{'subtitle': 'Castellana, Madrid', 'title': 'Ático en Calle de Diego de León'}",https://img3.idealista.com/blur/WEB_LISTING/0/id.pro.es.image.master/1e/37/ea/641418021.jpg,https://www.idealista.com/inmueble/83637945/
Calle del Alto,8,es,"{'typology': 'chalet', 'subTypology': 'independantHouse'}",10355,Encinar de los Reyes,False,VC19942,,True,True,,True,True,40.5089059,-3.6174592,La Moraleja,,False,53,sale,True,True,4100000.0,4858.0,83453714,chalet,Madrid,9,False,844.0,good,"{'subtitle': 'Encinar de los Reyes, La Moraleja', 'title': 'Casa independiente en Calle del Alto'}",https://img3.idealista.com/blur/WEB_LISTING/0/id.pro.es.image.master/4f/51/2f/618308786.jpg,https://www.idealista.com/inmueble/83453714/
